codigo_estacao,nome_estacao,estado_uf,latitude,longitude,altitude,data_inicio_operacao,situacao_status,tipo_estacao,entidade_responsavel,eh_capital,codigo_distrito,codigo_oscar,codigo_wsi
A422,ABROLHOS,BA,-17.96305555,-38.70333333,20.93,2008-07-20T21:00:00.000-03:00,Pane,Automatica,INMET,N,04,0-2000-0-86765,0-76-0-2906907000000408
A472,ACAJUTIBA,BA,-11.65444444,-38.01583333,182,2026-05-08T21:00:00.000-03:00,Operante,Automatica,INMET,N,04,,
A360,ACARAU,CE,-3.1211111,-40.08722221,67.15,2009-04-21T21:00:00.000-03:00,Pane,Automatica,INMET,N,03,0-2000-0-81755,0-76-0-2300200000000446
B828,ACEGUA,RS,-31.87472221,-54.11972221,271,2025-09-16T21:00:00.000-03:00,Operante,Automatica,INMET,N,08,,0-76-0-4300034000000625
A657,AFONSO CLAUDIO,ES,-20.10416666,-41.10694444,507.48,2011-09-23T21:00:00.000-03:00,Operante,Automatica,INMET,,06,0-2000-0-86827,0-76-0-3200102000000478
A908,AGUA BOA,MT,-14.01638888,-52.21166666,440,2006-12-15T21:00:00.000-03:00,Pane,Automatica,INMET,N,09,0-2000-0-86686,0-76-0-5100201000000157
A756,AGUA CLARA,MS,-20.44444444,-52.87583332,323.63,2010-08-13T21:00:00.000-03:00,Operante,Automatica,INMET,N,07,0-2000-0-86812,0-76-0-5000203000000463
S733,AGUA CLARA (FAZ. PELEJA),MS,-19.774306,-53.273982,527,2025-08-19T21:00:00.000-03:00,Operante,Automatica,SEMADESC-MS,N,38,0-2000-0-84862,0-76-0-5000203000000026
A045,AGUAS EMENDADAS,DF,-15.59638888,-47.62583332,1030.36,2008-10-02T21:00:00.000-03:00,Operante,Automatica,INMET,,10,0-2000-0-86716,0-76-0-5300108000000435
A549,AGUAS VERMELHAS,MG,-15.75166666,-41.45777777,754.07,2007-09-08T21:00:00.000-03:00,Operante,Automatica,INMET,N,05,0-2000-0-86722,0-76-0-3101003000000252
A534,AIMORES,MG,-19.53277777,-41.09083333,301,2007-08-04T21:00:00.000-03:00,Operante,Automatica,INMET,N,05,0-2000-0-86803,0-76-0-3101102000000239
B843,AJURICABA,RS,-28.22083332,-53.6736111,416,2025-12-01T21:00:00.000-03:00,Operante,Automatica,INMET,N,08,,0-76-0-4300208000000644
S731,ALCINOPOLIS (FAZ. VALE DO CEDRO),MS,-18.052175,-53.845593,384,2025-08-13T21:00:00.000-03:00,Operante,Automatica,SEMADESC-MS,N,38,0-2000-0-84860,0-76-0-5000252000000024
A617,ALEGRE,ES,-20.75055555,-41.48888888,138,2006-10-24T21:00:00.000-03:00,Operante,Automatica,INMET,N,06,0-2000-0-86828,0-76-0-3200201000000125
A826,ALEGRETE,RS,-29.70916666,-55.52555554,121,2006-09-27T21:00:00.000-03:00,Operante,Automatica,INMET,N,08,0-2000-0-86975,0-76-0-4300406000000113
B847,ALEGRETE (MARONNA),RS,-29.82138888,-55.88722221,120,2026-02-03T21:00:00.000-03:00,Pane,Automatica,INMET,N,08,,0-76-0-4300406000000660
A053,ALMAS,TO,-11.28416666,-47.21222222,503,2016-03-31T21:00:00.000-03:00,Operante,Automatica,INMET,N,10,0-2000-0-86627,0-76-0-1700400000000508
A508,ALMENARA,MG,-16.16666666,-40.68777777,189.11,2002-12-14T22:00:00.000-02:00,Operante,Automatica,INMET,N,05,0-2000-0-86743,0-76-0-3101706000000034
A924,ALTA FLORESTA,MT,-10.07722221,-56.17916666,291.85,2007-05-22T21:00:00.000-03:00,Pane,Automatica,INMET,N,09,0-2000-0-81977,0-76-0-5100250000000192
A253,ALTAMIRA,PA,-3.26999999,-52.39472221,191,2018-10-24T21:00:00.000-03:00,Operante,Automatica,INMET,N,02,0-2000-0-81738,0-76-0-1500602000000585
A909,ALTO ARAGUAIA,MT,-17.33944444,-53.22444443,753.28,2011-09-21T21:00:00.000-03:00,Operante,Automatica,INMET,N,09,0-2000-0-86749,0-76-0-5100300000000477
A024,ALTO PARAISO DE GOIAS,GO,-14.13305554,-47.52333332,1264.7,2007-06-03T21:00:00.000-03:00,Operante,Automatica,INMET,N,10,0-2000-0-86691,0-76-0-5200605000000208
A223,ALTO PARNAIBA,MA,-9.10833333,-45.93194443,283.69,2008-06-02T21:00:00.000-03:00,Pane,Automatica,INMET,N,02,0-2000-0-81985,0-76-0-2100501000000375
A934,ALTO TAQUARI,MT,-17.8411111,-53.28944444,862.42,2008-01-28T21:00:00.000-03:00,Operante,Automatica,INMET,,09,0-2000-0-86750,0-76-0-5100607000000284
A336,ALVORADA DO GURGUEIA,PI,-8.37638888,-43.85944444,225,2007-11-16T21:00:00.000-03:00,Pane,Automatica,INMET,N,03,0-2000-0-81846,0-76-0-2202307000000274
A750,AMAMBAI,MS,-23.0025,-55.32944443,433.59,2008-06-10T21:00:00.000-03:00,Operante,Automatica,INMET,,07,0-2000-0-86894,0-76-0-5000609000000381
A772,AMAMBAI - NOVO HORIZONTE,MS,-23.1211111,-54.86555555,,2026-02-17T21:00:00.000-03:00,Operante,Automatica,INMET,N,07,,0-76-0-5000609000000666
A434,AMARGOSA,BA,-13.00944444,-39.61694443,397.8,2008-07-10T21:00:00.000-03:00,Operante,Automatica,INMET,,04,0-2000-0-86675,0-76-0-2901007000000398
S736,ANAURILANDIA (FAZ. SANTO ANDRE),MS,-22.046806,-52.897545,428,2025-08-29T21:00:00.000-03:00,Operante,Automatica,SEMADESC-MS,N,38,0-2000-0-84865,0-76-0-5000807000000029
S701,ANGELICA,MS,-22.14805555,-53.76361111,347,2018-04-08T21:00:00.000-03:00,Operante,Automatica,SEMADESC-MS,N,38,0-2000-0-84830,0-76-0-5000856000000013
A377,ANGICAL DO PIAUI,PI,-6.08944444,-42.72749999,183,2019-11-13T21:00:00.000-03:00,Pane,Automatica,INMET,N,03,0-2000-0-81867,0-76-0-2200608000000597
A628,ANGRA DOS REIS,RJ,-22.97555554,-44.30333333,6,2017-08-24T21:00:00.000-03:00,Pane,Automatica,INMET,N,06,0-2000-0-84817,0-76-0-3300100000000555
A910,APIACAS,MT,-9.56333333,-57.3936111,217.75,2006-10-23T21:00:00.000-03:00,Pane,Automatica,INMET,N,09,0-2000-0-81976,0-76-0-5100805000000123
A340,APODI,RN,-5.62666666,-37.815,131.41,2007-11-13T21:00:00.000-03:00,Pane,Automatica,INMET,,03,0-2000-0-81835,0-76-0-2401008000000272
A113,APUI,AM,-7.20555555,-59.8886111,156.97,2008-07-18T21:00:00.000-03:00,Pane,Automatica,INMET,,01,0-2000-0-81893,0-76-0-1300144000000406
A719,AQUIDAUANA,MS,-20.47555554,-55.78388888,151.35,2006-10-31T21:00:00.000-03:00,Operante,Automatica,INMET,N,07,0-2000-0-86808,0-76-0-5001102000000132
S729,AQUIDAUANA (FAZ. BARRANCO ALTO),MS,-19.573766,-56.155409,101,2025-08-05T21:00:00.000-03:00,Operante,Automatica,SEMADESC-MS,N,38,0-2000-0-84858,0-76-0-5001102000000022
A409,ARACAJU,SE,-10.9525,-37.05444444,3.72,2003-02-11T22:00:00.000-02:00,Pane,Automatica,INMET,N,04,0-2000-0-86616,0-76-0-2800308000000055
A566,ARACUAI,MG,-16.84888888,-42.03527777,308,2017-05-18T21:00:00.000-03:00,Operante,Automatica,INMET,N,05,0-2000-0-86746,0-76-0-3103405000000548
A013,ARAGARCAS,GO,-15.90277777,-52.24527777,327.35,2007-07-12T21:00:00.000-03:00,Operante,Automatica,INMET,N,10,0-2000-0-86709,0-76-0-5201702000000229
A054,ARAGUACU,TO,-12.59222221,-49.5286111,231,2015-08-18T21:00:00.000-03:00,Operante,Automatica,INMET,N,10,0-2000-0-86648,0-76-0-1702000000000502
A021,ARAGUAINA,TO,-7.10388888,-48.20111111,230.76,2007-01-25T21:00:00.000-03:00,Operante,Automatica,INMET,N,10,0-2000-0-81900,0-76-0-1702109000000172
A044,ARAGUATINS,TO,-5.6436111,-48.11194444,130.71,2009-03-11T21:00:00.000-03:00,Operante,Automatica,INMET,,10,0-2000-0-81821,0-76-0-1702208000000443
S702,ARAL MOREIRA,MS,-22.955,-55.6261111,605,2018-04-12T21:00:00.000-03:00,Operante,Automatica,SEMADESC-MS,N,38,0-2000-0-84831,0-76-0-5001243000000016
A353,ARAPIRACA,AL,-9.80444444,-36.61916666,236.84,2008-04-26T21:00:00.000-03:00,Operante,Automatica,INMET,N,03,0-2000-0-81996,0-76-0-2700300000000353
A867,ARARANGUA,SC,-28.931353,-49.49792,2,2008-09-27T21:00:00.000-03:00,Operante,Automatica,INMET,,08,0-2000-0-86971,0-76-0-4201406000000433
A505,ARAXA,MG,-19.60583333,-46.94972221,1018.32,2002-12-18T22:00:00.000-02:00,Operante,Automatica,INMET,N,05,0-2000-0-86796,0-76-0-3104007000000037
A309,ARCO VERDE,PE,-8.4336111,-37.05555555,683.95,2004-11-19T21:00:00.000-03:00,Operante,Automatica,INMET,N,03,0-2000-0-81953,0-76-0-2601201000000068
A310,AREIA,PB,-6.97555554,-35.71805554,573.45,2004-11-15T21:00:00.000-03:00,Pane,Automatica,INMET,N,03,0-2000-0-81877,0-76-0-2501104000000066
A964,ARIPUANA,MT,-10.18249999,-59.45972222,230,2026-02-22T21:00:00.000-03:00,Operante,Automatica,INMET,N,09,,0-76-0-5101407000000667
A940,ARIQUEMES,RO,-9.94888888,-62.96194444,128.44,2008-07-17T21:00:00.000-03:00,Pane,Automatica,INMET,,09,0-2000-0-81970,0-76-0-1100023000000405
A736,ARIRANHA,SP,-21.13305554,-48.84055555,525.44,2007-11-12T21:00:00.000-03:00,Operante,Automatica,INMET,N,07,0-2000-0-86841,0-76-0-3503703000000271
A606,ARRAIAL DO CABO,RJ,-22.97527777,-42.02138888,5,2006-09-21T21:00:00.000-03:00,Operante,Automatica,INMET,N,06,0-2000-0-86892,0-76-0-3300258000000108
A120,AUTAZES,AM,-3.58333333,-59.12944443,19.9,2008-04-16T21:00:00.000-03:00,Pane,Automatica,INMET,,01,0-2000-0-81732,0-76-0-1300300000000339
A725,AVARE,SP,-23.10166666,-48.9411111,776.36,2006-09-21T21:00:00.000-03:00,Operante,Automatica,INMET,N,07,0-2000-0-86904,0-76-0-3504503000000107
A220,BACABAL,MA,-4.24305555,-44.79499999,22.33,2008-07-08T21:00:00.000-03:00,Operante,Automatica,INMET,N,02,0-2000-0-81790,0-76-0-2101202000000394
A827,BAGE,RS,-31.34777777,-54.01333333,226.19,2007-01-03T21:00:00.000-03:00,Operante,Automatica,INMET,N,08,0-2000-0-86992,0-76-0-4301602000000166
B827,BAGE - CENTRO,RS,-31.30555555,-54.01333333,226.2,2025-07-31T21:00:00.000-03:00,Operante,Automatica,INMET,,08,,0-76-0-4301602000000610
A375,BAIXA GRANDE DO RIBEIRO,PI,-8.333531,-45.094625,519,2018-03-22T21:00:00.000-03:00,Operante,Automatica,INMET,N,03,0-2000-0-81947,0-76-0-2201150000000578
A204,BALSAS,MA,-7.45555555,-46.02749999,271.03,2007-10-25T21:00:00.000-03:00,Pane,Automatica,INMET,N,02,0-2000-0-81903,0-76-0-2101400000000260
A565,BAMBUI,MG,-20.0311111,-46.00888888,697,2016-11-22T21:00:00.000-03:00,Operante,Automatica,INMET,N,05,0-2000-0-86806,0-76-0-3105103000000534
S703,BANDEIRANTES,MS,-19.94555555,-54.3686111,624,2018-01-28T21:00:00.000-03:00,Operante,Automatica,SEMADESC-MS,N,38,0-2000-0-84832,0-76-0-5001508000000002
A502,BARBACENA,MG,-21.22833332,-43.76777777,1168.76,2002-12-04T22:00:00.000-02:00,Operante,Automatica,INMET,N,05,0-2000-0-86850,0-76-0-3105608000000026
A315,BARBALHA,CE,-7.30083333,-39.2711111,409.41,2007-05-30T21:00:00.000-03:00,Pane,Automatica,INMET,N,03,0-2000-0-81911,0-76-0-2301901000000202
A128,BARCELOS,AM,-0.98722221,-62.92416666,29.88,2008-04-18T21:00:00.000-03:00,Operante,Automatica,INMET,N,01,0-2000-0-81648,0-76-0-1300409000000344
A429,BARRA,BA,-11.08472221,-43.13888888,407.5,2008-05-11T21:00:00.000-03:00,Operante,Automatica,INMET,N,04,0-2000-0-86634,0-76-0-2902708000000362
A741,BARRA BONITA,SP,-22.4711111,-48.5575,533.68,2008-04-23T21:00:00.000-03:00,Operante,Automatica,INMET,,07,0-2000-0-86867,0-76-0-3505302000000348
A967,BARRA DO BUGRES,MT,-15.07583332,-57.19472221,186,2026-02-02T21:00:00.000-03:00,Operante,Automatica,INMET,N,09,,0-76-0-5101704000000659
A221,BARRA DO CORDA,MA,-5.50666666,-45.23694444,154.19,2008-03-05T21:00:00.000-03:00,Pane,Automatica,INMET,N,02,0-2000-0-81825,0-76-0-2101608000000304
A945,BARRA DO GARCAS,MT,-15.88472221,-52.22722221,304,2025-11-25T21:00:00.000-03:00,Operante,Automatica,INMET,N,09,,0-76-0-5101803000000639
B848,BARRA DO QUARAI,RS,-30.11166666,-57.3361111,91,2026-01-26T21:00:00.000-03:00,Pane,Automatica,INMET,N,08,,0-76-0-4301875000000656
A746,BARRA DO TURVO,SP,-24.96277777,-48.41638888,659.89,2008-07-02T21:00:00.000-03:00,Operante,Automatica,INMET,,07,0-2000-0-86922,0-76-0-3505401000000393
A402,BARREIRAS,BA,-12.12472221,-45.02694443,474.17,2001-12-19T22:00:00.000-02:00,Operante,Automatica,INMET,N,04,0-2000-0-86652,0-76-0-2903201000000018
A748,BARRETOS,SP,-20.55916666,-48.54499999,534.36,2010-06-18T21:00:00.000-03:00,Operante,Automatica,INMET,N,07,0-2000-0-86816,0-76-0-3505500000000460
A755,BARUERI,SP,-23.52388888,-46.86944443,776.5,2011-03-28T21:00:00.000-03:00,Operante,Automatica,INMET,,07,0-2000-0-86908,0-76-0-3510609000000470
A759,BATAGUASSU,MS,-21.75,-52.47138888,392.13,2013-03-20T21:00:00.000-03:00,Operante,Automatica,INMET,,07,0-2000-0-86837,0-76-0-5001904000000492
A705,BAURU,SP,-22.35805555,-49.02888888,636.17,2001-08-29T21:00:00.000-03:00,Operante,Automatica,INMET,N,07,0-2000-0-86865,0-76-0-3506003000000010
A764,BEBEDOURO,SP,-20.94805555,-48.47138888,542,2016-10-26T21:00:00.000-03:00,Operante,Automatica,INMET,N,07,0-2000-0-84806,0-76-0-3506102000000528
A201,BELEM,PA,-1.41111111,-48.43944444,21.17,2003-01-19T22:00:00.000-02:00,Operante,Automatica,INMET,N,02,0-2000-0-81680,0-76-0-1501402000000042
A447,BELMONTE,BA,-16.08805555,-39.21527777,89.67,2009-07-01T21:00:00.000-03:00,Pane,Automatica,INMET,N,04,0-2000-0-86744,0-76-0-2903409000000453
F501,BELO HORIZONTE - CERCADINHO,MG,-19.97999999,-43.95861111,1199.55,2013-12-26T21:00:00.000-03:00,Operante,Automatica,INMET,N,05,0-2000-0-86799,0-76-0-3106200000000597
A521,BELO HORIZONTE - PAMPULHA,MG,-19.88388888,-43.96944443,854.02,2006-10-09T21:00:00.000-03:00,Operante,Automatica,INMET,N,05,0-2000-0-86800,0-76-0-3106200000000116
A572,BELO HORIZONTE - SANTO AGOSTINHO,MG,-19.93388888,-43.95222222,915.47,2025-08-27T21:00:00.000-03:00,Operante,Automatica,INMET,N,05,,0-76-0-3106200000000620
A840,BENTO GONCALVES,RS,-29.16444444,-51.53416666,639,2006-11-30T21:00:00.000-03:00,Operante,Automatica,INMET,N,08,0-2000-0-86979,0-76-0-4302105000000152
A765,BERTIOGA,SP,-23.84472221,-46.14333333,5,2017-01-31T21:00:00.000-03:00,Operante,Automatica,INMET,N,07,0-2000-0-86900,0-76-0-3506359000000536
A135,BOA VISTA,RR,2.81694443,-60.69083333,82.35,2010-08-25T21:00:00.000-03:00,Pane,Automatica,INMET,,01,0-2000-0-81615,0-76-0-1400100000000465
A110,BOCA DO ACRE,AM,-8.77666666,-67.33249999,111.98,2008-07-14T21:00:00.000-03:00,Operante,Automatica,INMET,N,01,0-2000-0-81927,0-76-0-1300706000000400
A845,BOM JARDIM DA SERRA - MORRO DA IGREJA,SC,-28.12694443,-49.47972221,1790.38,2007-06-16T21:00:00.000-03:00,Pane,Automatica,INMET,N,08,0-2000-0-86968,0-76-0-4218905000000213
B856,BOM JESUS (INMET),RS,-28.66944443,-50.44194444,1054,2026-03-02T21:00:00.000-03:00,Operante,Automatica,INMET,N,08,,0-76-0-4302303000000673
B857,BOM JESUS - SANTO INACIO,RS,-28.51388888,-50.16777777,1132,2026-03-02T21:00:00.000-03:00,Operante,Automatica,INMET,N,08,,0-76-0-4302303000000674
A326,BOM JESUS DO PIAUI,PI,-9.07999999,-44.32777777,288,2007-07-16T21:00:00.000-03:00,Pane,Automatica,INMET,N,03,0-2000-0-81987,0-76-0-2201903000000231
S704,BONITO,MS,-21.24666666,-56.45055555,329,2018-08-05T21:00:00.000-03:00,Operante,Automatica,SEMADESC-MS,N,38,0-2000-0-84833,0-76-0-5002209000000017
A226,BRAGANCA,PA,-1.05583333,-46.78277777,5.6,2008-03-10T21:00:00.000-03:00,Operante,Automatica,INMET,,02,0-2000-0-81685,0-76-0-1501709000000313
A744,BRAGANCA PAULISTA,SP,-22.94916666,-46.5261111,891,2017-12-19T21:00:00.000-03:00,Operante,Automatica,INMET,N,07,0-2000-0-84822,0-76-0-3507605000000569
A001,BRASILIA,DF,-15.78944444,-47.92583332,1160.96,2000-05-06T21:00:00.000-03:00,Operante,Automatica,INMET,N,10,0-2000-0-86715,0-76-0-5300108000000001
A927,BRASNORTE (NOVO MUNDO),MT,-12.52194443,-58.23138888,426.2,2008-02-28T21:00:00.000-03:00,Operante,Automatica,INMET,,09,0-2000-0-86643,0-76-0-5101902000000298
A042,BRAZLANDIA,DF,-15.6525,-48.20138888,1147,2017-07-18T21:00:00.000-03:00,Operante,Automatica,INMET,N,10,0-2000-0-86708,0-76-0-5300108000000551
A421,BREJO GRANDE,SE,-10.47388888,-36.48194443,6.11,2008-07-16T21:00:00.000-03:00,Pane,Automatica,INMET,,04,0-2000-0-86618,0-76-0-2800704000000402
A228,BREVES,PA,-1.68027777,-50.47805554,11,2017-10-19T21:00:00.000-03:00,Pane,Automatica,INMET,N,02,0-2000-0-81673,0-76-0-1501808000000561
A433,BRUMADO,BA,-14.18194443,-41.67222221,473.37,2008-04-27T21:00:00.000-03:00,Pane,Automatica,INMET,,04,0-2000-0-86696,0-76-0-2904605000000354
A238,BURITICUPU,MA,-4.32055554,-46.44944444,174.91,2008-09-10T21:00:00.000-03:00,Operante,Automatica,INMET,N,02,0-2000-0-81788,0-76-0-2102325000000427
A432,BURITIRAMA,BA,-10.72305554,-43.65111111,506.06,2008-05-14T21:00:00.000-03:00,Pane,Automatica,INMET,N,04,0-2000-0-86609,0-76-0-2904753000000363
A544,BURITIS,MG,-15.52416666,-46.43555555,894,2007-06-18T21:00:00.000-03:00,Operante,Automatica,INMET,N,05,0-2000-0-86718,0-76-0-3109303000000214
S706,CAARAPO,MS,-22.65694444,-54.81944443,456,2018-03-02T21:00:00.000-03:00,Operante,Automatica,SEMADESC-MS,N,38,0-2000-0-84835,0-76-0-5002407000000010
A348,CABACEIRAS,PB,-7.48333333,-36.28638888,391.96,2008-02-27T21:00:00.000-03:00,Operante,Automatica,INMET,N,03,0-2000-0-81915,0-76-0-2503100000000295
A329,CABROBO,PE,-8.50388888,-39.31527777,342.74,2007-09-03T21:00:00.000-03:00,Operante,Automatica,INMET,N,03,0-2000-0-81951,0-76-0-2603009000000250
A859,CACADOR,SC,-26.81916666,-50.98555555,944.26,2008-03-18T21:00:00.000-03:00,Pane,Automatica,INMET,N,08,0-2000-0-86943,0-76-0-4203006000000319
A812,CACAPAVA DO SUL,RS,-30.54527777,-53.46694443,420.82,2006-06-21T21:00:00.000-03:00,Operante,Automatica,INMET,N,08,0-2000-0-86986,0-76-0-4302808000000079
A941,CACERES,MT,-16.12999999,-57.69083333,123.53,2012-03-29T21:00:00.000-03:00,Operante,Automatica,INMET,,09,0-2000-0-86726,0-76-0-5102504000000480
B822,CACHOEIRA DO SUL,RS,-30.01833332,-52.93888888,73,2025-09-16T21:00:00.000-03:00,Operante,Automatica,INMET,N,08,,0-76-0-4303004000000622
A769,CACHOEIRA PAULISTA,SP,-22.68888888,-45.00555555,586,2017-10-19T21:00:00.000-03:00,Operante,Automatica,INMET,N,07,0-2000-0-84820,0-76-0-3508603000000562
B808,CACHOEIRINHA,RS,-29.95138888,-51.12416666,72,2025-02-17T21:00:00.000-03:00,Operante,Automatica,INMET,N,08,,0-76-0-4303103000000602
A939,CACOAL,RO,-11.44583333,-61.43416666,183.53,2008-07-19T21:00:00.000-03:00,Operante,Automatica,INMET,,09,0-2000-0-86622,0-76-0-1100049000000407
A023,CAIAPONIA,GO,-16.96694443,-51.81749999,740.1,2007-05-20T21:00:00.000-03:00,Operante,Automatica,INMET,N,10,0-2000-0-86730,0-76-0-5204409000000188
A316,CAICO,RN,-6.46749999,-37.08499999,171.26,2007-01-06T21:00:00.000-03:00,Operante,Automatica,INMET,N,03,0-2000-0-81875,0-76-0-2402006000000168
A344,CALCANHAR,RN,-5.16,-35.48749999,9.82,2008-05-07T21:00:00.000-03:00,Pane,Automatica,INMET,N,03,0-2000-0-81838,0-76-0-2414407000000360
A530,CALDAS,MG,-21.91805554,-46.38305554,1077.34,2006-11-27T21:00:00.000-03:00,Pane,Automatica,INMET,N,05,0-2000-0-86846,0-76-0-3110301000000148
S707,CAMAPUA,MS,-19.58749999,-54.02999999,540,2018-02-18T21:00:00.000-03:00,Operante,Automatica,SEMADESC-MS,N,38,0-2000-0-84836,0-76-0-5002605000000004
A838,CAMAQUA,RS,-30.80805555,-51.83416666,92.3,2006-12-11T21:00:00.000-03:00,Operante,Automatica,INMET,N,08,0-2000-0-86989,0-76-0-4303509000000155
A352,CAMARATUBA,PB,-6.56194444,-35.13527777,135.51,2008-05-03T21:00:00.000-03:00,Pane,Automatica,INMET,,03,0-2000-0-81878,0-76-0-2509305000000359
A897,CAMBARA DO SUL,RS,-29.04916666,-50.14972221,1017,2016-11-23T21:00:00.000-03:00,Operante,Automatica,INMET,N,08,0-2000-0-84808,0-76-0-4303608000000535
A604,CAMBUCI,RJ,-21.58749999,-41.95833333,46,2002-11-19T22:00:00.000-02:00,Operante,Automatica,INMET,N,06,0-2000-0-86854,0-76-0-3300902000000025
A236,CAMETA,PA,-2.23972221,-49.49972221,9.92,2008-06-19T21:00:00.000-03:00,Pane,Automatica,INMET,N,02,0-2000-0-81710,0-76-0-1502103000000386
B803,CAMPINA DA LAGOA,PR,-24.57083332,-52.80027777,598,2016-08-03T21:00:00.000-03:00,Operante,Automatica,INMET,N,08,0-2000-0-86918,0-76-0-4103909000000524
A313,CAMPINA GRANDE,PB,-7.22555554,-35.90472222,546.17,2006-12-21T21:00:00.000-03:00,Operante,Automatica,INMET,N,03,0-2000-0-81916,0-76-0-2504009000000165
A519,CAMPINA VERDE,MG,-19.53916666,-49.51805554,559.07,2006-07-14T21:00:00.000-03:00,Operante,Automatica,INMET,N,05,0-2000-0-86793,0-76-0-3111101000000085
A884,CAMPO BOM,RS,-29.67416666,-51.06416666,23.35,2013-11-28T21:00:00.000-03:00,Operante,Automatica,INMET,,08,0-2000-0-86991,0-76-0-4303905000000494
A702,CAMPO GRANDE,MS,-20.44722221,-54.72249999,528.47,2001-09-09T21:00:00.000-03:00,Operante,Automatica,INMET,N,07,0-2000-0-86810,0-76-0-5002704000000013
A376,CAMPO MAIOR,PI,-4.86416666,-42.14555555,125,2018-11-22T21:00:00.000-03:00,Pane,Automatica,INMET,N,03,0-2000-0-81795,0-76-0-2202208000000586
A905,CAMPO NOVO DOS PARECIS,MT,-13.78583333,-57.8386111,525.41,2002-12-12T22:00:00.000-02:00,Pane,Automatica,INMET,N,09,0-2000-0-86662,0-76-0-5102637000000033
A912,CAMPO VERDE,MT,-15.55888888,-55.17944443,747,2006-11-20T21:00:00.000-03:00,Operante,Automatica,INMET,N,09,0-2000-0-86707,0-76-0-5102678000000143
A962,CAMPOS DE JULIO,MT,-13.72722221,-59.2625,620,2026-02-14T21:00:00.000-03:00,Operante,Automatica,INMET,N,09,,
A706,CAMPOS DO JORDAO,SP,-22.75027777,-45.60388888,1662.95,2002-03-12T21:00:00.000-03:00,Operante,Automatica,INMET,N,07,0-2000-0-86872,0-76-0-3509700000000019
A607,CAMPOS DOS GOYTACAZES,RJ,-21.71472222,-41.34388888,17,2006-09-24T21:00:00.000-03:00,Operante,Automatica,INMET,N,06,0-2000-0-86855,0-76-0-3301009000000109
A620,CAMPOS DOS GOYTACAZES - SAO TOME,RJ,-22.04166666,-41.05166666,7,2008-06-12T21:00:00.000-03:00,Operante,Automatica,INMET,N,06,0-2000-0-86890,0-76-0-3301009000000382
A043,CAMPOS LINDOS,TO,-8.15472222,-46.63944444,426.56,2012-10-28T21:00:00.000-03:00,Pane,Automatica,INMET,N,10,0-2000-0-81902,0-76-0-1703842000000487
A898,CAMPOS NOVOS,SC,-27.3886111,-51.21583333,963,2019-02-14T21:00:00.000-03:00,Operante,Automatica,INMET,N,08,0-2000-0-84826,0-76-0-4203600000000587
A347,CAMPOS SALES,CE,-7.07777777,-40.36277777,577.95,2008-03-06T21:00:00.000-03:00,Operante,Automatica,INMET,N,03,0-2000-0-81909,0-76-0-2302701000000307
A957,CANARANA,MT,-13.47055554,-52.30444444,430,2026-02-08T21:00:00.000-03:00,Operante,Automatica,INMET,N,09,,0-76-0-5102702000000664
A879,CANELA,RS,-29.36888888,-50.82722221,830.93,2008-08-22T21:00:00.000-03:00,Operante,Automatica,INMET,,08,0-2000-0-86980,0-76-0-4304408000000415
A811,CANGUCU,RS,-31.40333333,-52.70083333,446.81,2007-01-23T21:00:00.000-03:00,Operante,Automatica,INMET,N,08,0-2000-0-86993,0-76-0-4304507000000171
A365,CANTO DO BURITI,PI,-8.11805554,-42.97583332,312.07,2010-06-11T21:00:00.000-03:00,Operante,Automatica,INMET,,03,0-2000-0-81847,0-76-0-2202307000000459
B832,CAPAO DA CANOA,RS,-29.68527777,-49.99305555,0,2025-10-12T21:00:00.000-03:00,Operante,Automatica,INMET,N,08,,0-76-0-4304630000000629
A887,CAPAO DO LEAO (PELOTAS),RS,-31.8025,-52.40722222,13,2019-07-17T21:00:00.000-03:00,Operante,Automatica,INMET,N,08,0-2000-0-84829,0-76-0-4304663000000595
A541,CAPELINHA,MG,-17.70555555,-42.38916666,932.06,2007-08-30T21:00:00.000-03:00,Operante,Automatica,INMET,N,05,0-2000-0-86761,0-76-0-3112307000000248
A248,CAPITAO POCO,PA,-1.73472221,-47.0575,79.1,2011-04-17T21:00:00.000-03:00,Operante,Automatica,INMET,,02,0-2000-0-81684,0-76-0-1502301000000473
A337,CARACOL,PI,-9.28583333,-43.32444443,515.3,2007-11-09T21:00:00.000-03:00,Pane,Automatica,INMET,N,03,0-2000-0-81988,0-76-0-2202505000000268
S730,CARACOL (FAZ. OURO E PRATA),MS,-21.854199,-56.868788,392,2025-08-09T21:00:00.000-03:00,Operante,Automatica,SEMADESC-MS,N,38,0-2000-0-84859,0-76-0-5002803000000023
A554,CARATINGA,MG,-19.73583333,-42.13722221,609.25,2007-05-23T21:00:00.000-03:00,Operante,Automatica,INMET,,05,0-2000-0-86802,0-76-0-3113404000000193
A405,CARAVELAS,BA,-17.73944444,-39.25861111,6.05,2002-12-19T22:00:00.000-02:00,Pane,Automatica,INMET,N,04,0-2000-0-86764,0-76-0-2906907000000039
B842,CARAZINHO,RS,-28.32333332,-52.81444444,581,2025-11-30T21:00:00.000-03:00,Operante,Automatica,INMET,N,08,,0-76-0-4304705000000643
A926,CARLINDA,MT,-9.97055554,-55.82749999,293.71,2008-04-08T21:00:00.000-03:00,Pane,Automatica,INMET,,09,0-2000-0-81978,0-76-0-5102793000000330
A629,CARMO,RJ,-21.9386111,-42.60083333,293,2018-10-10T21:00:00.000-03:00,Operante,Automatica,INMET,N,06,0-2000-0-84824,0-76-0-3301207000000583
A205,CAROLINA,MA,-7.33722221,-47.45972222,182.88,2007-12-03T21:00:00.000-03:00,Operante,Automatica,INMET,,02,0-2000-0-81901,0-76-0-2102804000000279
A341,CARUARU,PE,-8.35611111,-36.02833332,837,2007-11-20T21:00:00.000-03:00,Pane,Automatica,INMET,,03,0-2000-0-81956,0-76-0-2604106000000276
A738,CASA BRANCA,SP,-21.78055554,-47.07527777,734.15,2007-06-24T21:00:00.000-03:00,Operante,Automatica,INMET,N,07,0-2000-0-86844,0-76-0-3510807000000216
B858,CASCA,RS,-28.56361111,-51.96916666,602,2026-02-23T21:00:00.000-03:00,Operante,Automatica,INMET,N,08,,0-76-0-4304903000000668
A742,CASSILANDIA,MS,-19.12249999,-51.72083332,494.72,2008-03-07T21:00:00.000-03:00,Operante,Automatica,INMET,,07,0-2000-0-86791,0-76-0-5002902000000308
A202,CASTANHAL,PA,-1.30083333,-47.94805555,47.13,2003-01-23T22:00:00.000-02:00,Operante,Automatica,INMET,N,02,0-2000-0-81682,0-76-0-1502400000000044
A361,CASTELO DO PIAUI,PI,-5.34916666,-41.51222222,268.75,2009-04-19T21:00:00.000-03:00,Operante,Automatica,INMET,N,03,0-2000-0-81829,0-76-0-2202604000000445
A819,CASTRO,PR,-24.77999999,-50.04638888,1016,2006-07-08T21:00:00.000-03:00,Pane,Automatica,INMET,N,08,0-2000-0-86921,0-76-0-4104907000000081
A034,CATALAO,GO,-18.15472222,-47.92749999,900.72,2008-01-30T21:00:00.000-03:00,Operante,Automatica,INMET,N,10,0-2000-0-86777,0-76-0-5205109000000286
A237,CAXIAS,MA,-4.82138888,-43.3436111,84.85,2008-07-12T21:00:00.000-03:00,Pane,Automatica,INMET,N,02,0-2000-0-81792,0-76-0-2103000000000399
B818,CAXIAS DO SUL - AEROPORTO,RS,-29.1961111,-51.18638888,756,2025-08-13T21:00:00.000-03:00,Operante,Automatica,INMET,,08,,0-76-0-4305108000000614
B817,CAXIAS DO SUL - CRIUVA,RS,-28.87416666,-50.97555554,857,2025-07-31T21:00:00.000-03:00,Operante,Automatica,INMET,N,08,,0-76-0-4305108000000609
A958,CHAPADA DOS GUIMARAES,MT,-15.46055555,-55.74972221,800,2026-02-05T21:00:00.000-03:00,Operante,Automatica,INMET,N,09,,0-76-0-5103007000000663
A548,CHAPADA GAUCHA,MG,-15.30027777,-45.61749999,873.2,2007-06-21T21:00:00.000-03:00,Pane,Automatica,INMET,N,05,0-2000-0-86719,0-76-0-3116159000000215
A730,CHAPADAO DO SUL,MS,-18.80222222,-52.6025,820.82,2006-12-19T21:00:00.000-03:00,Operante,Automatica,INMET,N,07,0-2000-0-86772,0-76-0-5002951000000163
A206,CHAPADINHA,MA,-3.74277777,-43.35222222,104,2008-09-16T21:00:00.000-03:00,Operante,Automatica,INMET,N,02,0-2000-0-81749,0-76-0-2103208000000430
A895,CHAPECO,SC,-27.08527777,-52.63583333,679,2019-02-18T21:00:00.000-03:00,Operante,Automatica,INMET,N,08,0-2000-0-84827,0-76-0-4204202000000588
B812,CHARQUEADAS,RS,-29.96555555,-51.62555554,23,2025-04-30T21:00:00.000-03:00,Operante,Automatica,INMET,N,08,,0-76-0-4305355000000605
A869,CIDADE GAUCHA,PR,-23.35916666,-52.93194443,365.79,2008-03-10T21:00:00.000-03:00,Operante,Automatica,INMET,N,08,0-2000-0-86898,0-76-0-4105607000000314
A876,CLEVELANDIA,PR,-26.41722221,-52.3486111,966.06,2008-05-14T21:00:00.000-03:00,Pane,Automatica,INMET,,08,0-2000-0-86939,0-76-0-4105706000000364
A117,COARI,AM,-4.09749999,-63.14527777,33.84,2008-04-11T21:00:00.000-03:00,Pane,Automatica,INMET,,01,0-2000-0-81770,0-76-0-1301209000000335
A954,COCALINHO,MT,-14.38555555,-51.00972222,252,2025-12-02T21:00:00.000-03:00,Operante,Automatica,INMET,N,09,,0-76-0-5103106000000645
A222,COLINAS,MA,-6.03305554,-44.23333333,175.37,2008-06-02T21:00:00.000-03:00,Pane,Automatica,INMET,N,02,0-2000-0-81866,0-76-0-2103505000000374
A049,COLINAS DO TOCANTINS,TO,-8.09277777,-48.4786111,200,2016-11-10T21:00:00.000-03:00,Operante,Automatica,INMET,N,10,0-2000-0-81939,0-76-0-1705508000000530
A965,COLNIZA,MT,-9.45222222,-59.23527777,140,2026-02-21T21:00:00.000-03:00,Operante,Automatica,INMET,N,09,,
B806,COLOMBO,PR,-25.322464,-49.157733,950,2016-05-31T21:00:00.000-03:00,Operante,Automatica,INMET,N,08,0-2000-0-86928,0-76-0-4105805000000516
A963,COMODORO NORTE,MT,-13.63555555,-59.78499999,624,2026-02-16T21:00:00.000-03:00,Operante,Automatica,INMET,N,09,,
A520,CONCEICAO DAS ALAGOAS,MG,-19.98583333,-48.15166666,572.54,2006-07-17T21:00:00.000-03:00,Operante,Automatica,INMET,N,05,0-2000-0-86794,0-76-0-3117306000000087
A241,CONCEICAO DO ARAGUAIA,PA,-8.30361111,-49.28277777,175.74,2008-09-03T21:00:00.000-03:00,Pane,Automatica,INMET,,02,0-2000-0-81940,0-76-0-1502707000000419
A431,CONDE,BA,-12.03583333,-37.68388888,31.9,2008-04-06T21:00:00.000-03:00,Pane,Automatica,INMET,N,04,0-2000-0-86639,0-76-0-2908606000000329
A968,CONFRESA,MT,-10.65416666,-51.55222222,240,2026-03-10T21:00:00.000-03:00,Pane,Automatica,INMET,N,09,,
S722,CORGUINHO (FAZ. MORRO ALEGRE),MS,-19.76111111,-55.32972221,597,2025-06-10T21:00:00.000-03:00,Operante,Automatica,SEMADESC-MS,N,38,0-2000-0-84851,0-76-0-5003108000000022
A557,CORONEL PACHECO,MG,-21.54666666,-43.26111111,411.14,2012-10-16T21:00:00.000-03:00,Operante,Automatica,INMET,,05,0-2000-0-86822,0-76-0-3119609000000485
A374,CORRENTE,PI,-10.42916666,-45.17305554,452,2018-03-27T21:00:00.000-03:00,Operante,Automatica,INMET,N,03,0-2000-0-86617,0-76-0-2202901000000579
A416,CORRENTINA,BA,-13.33249999,-44.61749999,551.71,2007-11-08T21:00:00.000-03:00,Operante,Automatica,INMET,N,04,0-2000-0-86671,0-76-0-2909307000000266
A724,CORUMBA,MS,-18.99666666,-57.63749999,111.73,2006-10-25T21:00:00.000-03:00,Operante,Automatica,INMET,N,07,0-2000-0-86767,0-76-0-5003207000000126
S726,CORUMBA (ECOA AMOLAR),MS,-18.040824,-57.489877,99,2025-07-25T21:00:00.000-03:00,Operante,Automatica,SEMADESC-MS,N,38,0-2000-0-84855,0-76-0-5003207000000019
S718,CORUMBA (FAZ. CAMPO ZELIA),MS,-18.6236111,-55.68666666,150,2025-05-19T21:00:00.000-03:00,Operante,Automatica,SEMADESC-MS,N,38,0-2000-0-84847,0-76-0-5003207000000018
S727,CORUMBA (FAZ. ELDORADO DA FORMOSA),MS,-17.908087,-56.5671,124,2025-07-28T21:00:00.000-03:00,Operante,Automatica,SEMADESC-MS,N,38,0-2000-0-84856,0-76-0-5003207000000030
S721,CORUMBA (FAZ. SAO CANDIDO),MS,-20.08583333,-57.30611111,108,2025-06-05T21:00:00.000-03:00,Operante,Automatica,SEMADESC-MS,N,38,0-2000-0-84850,0-76-0-5003207000000021
S725,CORUMBA (FAZ. SAO FRANCISCO),MS,-17.790603,-55.774991,145,2025-06-26T21:00:00.000-03:00,Operante,Automatica,SEMADESC-MS,N,38,0-2000-0-84854,0-76-0-5003207000000025
S720,CORUMBA (FAZ. XARAES),MS,-19.49444444,-56.95777777,155,2025-05-31T21:00:00.000-03:00,Operante,Automatica,SEMADESC-MS,N,38,0-2000-0-84849,0-76-0-5003207000000020
A355,CORURIPE,AL,-10.1286111,-36.28638888,82.39,2008-09-05T21:00:00.000-03:00,Operante,Automatica,INMET,N,03,0-2000-0-86619,0-76-0-2702306000000422
A760,COSTA RICA,MS,-18.49277777,-53.17138888,727.34,2012-12-03T21:00:00.000-03:00,Operante,Automatica,INMET,,07,0-2000-0-86771,0-76-0-5003256000000490
A919,COTRIGUACU,MT,-9.90638888,-58.57222221,265,2007-05-27T21:00:00.000-03:00,Pane,Automatica,INMET,N,09,0-2000-0-81975,0-76-0-5103379000000199
A720,COXIM,MS,-18.51222222,-54.7361111,251.48,2006-11-05T21:00:00.000-03:00,Operante,Automatica,INMET,N,07,0-2000-0-86770,0-76-0-5003306000000136
A342,CRATEUS,CE,-5.18666666,-40.67222221,298.19,2008-12-10T21:00:00.000-03:00,Pane,Automatica,INMET,N,03,0-2000-0-81830,0-76-0-2304103000000439
A036,CRISTALINA,GO,-16.78499999,-47.61305555,1211.08,2007-12-13T21:00:00.000-03:00,Operante,Automatica,INMET,,10,0-2000-0-86737,0-76-0-5206206000000280
A056,CRISTALINA (FAZENDA SANTA MONICA),GO,-16.39944444,-47.62583332,932,2018-01-24T21:00:00.000-03:00,Operante,Automatica,INMET,N,10,0-2000-0-86727,0-76-0-5206206000000570
A853,CRUZ ALTA,RS,-28.60333333,-53.6736111,426.69,2007-05-30T21:00:00.000-03:00,Operante,Automatica,INMET,N,08,0-2000-0-86962,0-76-0-4306106000000203
B833,CRUZ ALTA ( CENTRO),RS,-28.62583332,-53.61361111,475,2025-10-12T21:00:00.000-03:00,Operante,Automatica,INMET,N,08,,0-76-0-4306106000000630
A406,CRUZ DAS ALMAS,BA,-12.67555554,-39.08944444,219.76,2003-01-18T22:00:00.000-02:00,Operante,Automatica,INMET,N,04,0-2000-0-86657,0-76-0-2909802000000041
A108,CRUZEIRO DO SUL,AC,-7.61055555,-72.6811111,220,2015-05-13T21:00:00.000-03:00,Pane,Automatica,INMET,N,01,0-2000-0-81881,0-76-0-1200203000000498
A901,CUIABA,MT,-15.60694444,-56.06083333,184,2002-12-07T22:00:00.000-02:00,Operante,Automatica,INMET,N,09,0-2000-0-86705,0-76-0-5108402000000028
A448,CURACA,BA,-9.00138888,-39.9125,370,2015-08-19T21:00:00.000-03:00,Operante,Automatica,INMET,N,04,0-2000-0-81984,0-76-0-2909901000000503
A807,CURITIBA,PR,-25.4486111,-49.23055554,922.91,2003-01-27T22:00:00.000-02:00,Operante,Automatica,INMET,N,08,0-2000-0-86933,0-76-0-4106902000000046
A860,CURITIBANOS,SC,-27.2886111,-50.60416666,978.1,2008-02-27T21:00:00.000-03:00,Operante,Automatica,INMET,N,08,0-2000-0-86956,0-76-0-4204806000000296
A538,CURVELO,MG,-18.74777777,-44.45388888,669.48,2006-12-17T21:00:00.000-03:00,Operante,Automatica,INMET,N,05,0-2000-0-86780,0-76-0-3120904000000158
A443,DELFINO,BA,-10.455,-41.20694444,646.24,2008-07-14T21:00:00.000-03:00,Pane,Automatica,INMET,N,04,0-2000-0-86610,0-76-0-2932457000000401
A849,DIAMANTE DO NORTE,PR,-22.63944444,-52.89027777,368.22,2008-03-05T21:00:00.000-03:00,Operante,Automatica,INMET,N,08,0-2000-0-86861,0-76-0-4107108000000306
A537,DIAMANTINA,MG,-18.231052,-43.648269,1359.25,2007-06-04T21:00:00.000-03:00,Operante,Automatica,INMET,N,05,0-2000-0-86781,0-76-0-3121605000000209
A949,DIAMANTINO,MT,-14.37777777,-56.37972221,317,2025-11-26T21:00:00.000-03:00,Operante,Automatica,INMET,N,09,,0-76-0-5103502000000640
A038,DIANOPOLIS,TO,-11.59444444,-46.84722221,727.87,2008-08-29T21:00:00.000-03:00,Operante,Automatica,INMET,N,10,0-2000-0-86632,0-76-0-1707009000000417
B852,DILERMANDO DE AGUIAR,RS,-29.72555554,-54.18805555,143,2026-02-03T21:00:00.000-03:00,Operante,Automatica,INMET,N,08,,0-76-0-4306379000000661
A848,DIONISIO CERQUEIRA,SC,-26.286562,-53.633114,807.54,2008-05-30T21:00:00.000-03:00,Operante,Automatica,INMET,N,08,0-2000-0-86936,0-76-0-4205001000000372
A564,DIVINOPOLIS,MG,-20.17333332,-44.87499999,796,2017-10-25T21:00:00.000-03:00,Operante,Automatica,INMET,N,05,0-2000-0-84821,0-76-0-3122306000000565
A843,DOIS VIZINHOS,PR,-25.69916666,-53.09527777,545.95,2007-03-28T21:00:00.000-03:00,Operante,Automatica,INMET,N,08,0-2000-0-86927,0-76-0-4107207000000178
A252,DOM ELISEU,PA,-4.28055554,-47.56388888,251,2018-03-07T21:00:00.000-03:00,Operante,Automatica,INMET,N,02,0-2000-0-81782,0-76-0-1502939000000571
A881,DOM PEDRITO,RS,-31.0025,-54.61805554,150,2010-04-22T21:00:00.000-03:00,Operante,Automatica,INMET,,08,0-2000-0-86985,0-76-0-4306601000000458
A536,DORES DO INDAIA,MG,-19.48194443,-45.59388888,721.09,2007-05-31T21:00:00.000-03:00,Operante,Automatica,INMET,N,05,0-2000-0-86797,0-76-0-3123205000000205
A721,DOURADOS,MS,-22.19388888,-54.91138888,463.3,2006-10-17T21:00:00.000-03:00,Operante,Automatica,INMET,N,07,0-2000-0-86858,0-76-0-5003702000000118
A762,DRACENA,SP,-21.45777777,-51.55222222,383,2016-11-02T21:00:00.000-03:00,Pane,Automatica,INMET,N,07,0-2000-0-84807,0-76-0-3514403000000529
A603,DUQUE DE CAXIAS - XEREM,RJ,-22.58972221,-43.28222221,22,2002-10-20T21:00:00.000-03:00,Operante,Automatica,INMET,N,06,0-2000-0-86877,0-76-0-3301702000000022
A631,ECOPORANGA,ES,-18.29138888,-40.73638888,224,2017-03-16T21:00:00.000-03:00,Pane,Automatica,INMET,N,06,0-2000-0-86766,0-76-0-3202108000000541
A029,EDEIA,GO,-17.33694444,-49.91472222,608,2017-08-25T21:00:00.000-03:00,Operante,Automatica,INMET,N,10,0-2000-0-86754,0-76-0-5207402000000556
A109,EIRUNEPE,AM,-6.65027777,-69.8686111,121.54,2012-08-30T21:00:00.000-03:00,Pane,Automatica,INMET,N,01,0-2000-0-81843,0-76-0-1301407000000483
A893,ENCRUZILHADA DO SUL,RS,-30.54305555,-52.52472221,427.75,2018-03-14T21:00:00.000-03:00,Operante,Automatica,INMET,N,08,0-2000-0-86997,0-76-0-4306908000000575
A140,EPITACIOLANDIA,AC,-11.02388888,-68.73527777,224.5,2009-09-24T21:00:00.000-03:00,Pane,Automatica,INMET,,01,0-2000-0-86620,0-76-0-1200252000000455
A828,ERECHIM,RS,-27.65777777,-52.30583333,777.08,2006-11-24T21:00:00.000-03:00,Operante,Automatica,INMET,N,08,0-2000-0-86954,0-76-0-4307005000000146
B845,ESPERANCA DO SUL,RS,-27.37416666,-53.96916666,409,2025-12-11T21:00:00.000-03:00,Operante,Automatica,INMET,N,08,,0-76-0-4307450000000651
A970,ESPIGAO DO LESTE,MT,-11.42666666,-52.18583333,380,2026-03-12T21:00:00.000-03:00,Operante,Automatica,INMET,N,09,,
A543,ESPINOSA,MG,-14.91222222,-42.80861111,565.36,2007-11-13T21:00:00.000-03:00,Operante,Automatica,INMET,N,05,0-2000-0-86695,0-76-0-3124302000000273
A224,ESTREITO,MA,-6.65333333,-47.41833332,182.96,2008-02-26T21:00:00.000-03:00,Operante,Automatica,INMET,,02,0-2000-0-81863,0-76-0-2104057000000293
A442,EUCLIDES DA CUNHA,BA,-10.53722221,-38.99666666,431.96,2008-03-30T21:00:00.000-03:00,Operante,Automatica,INMET,,04,0-2000-0-86613,0-76-0-2910701000000326
A217,FAROL de SANTANA,MA,-2.27083332,-43.62416666,9.87,2008-11-27T21:00:00.000-03:00,Pane,Automatica,INMET,N,02,0-2000-0-81716,0-76-0-2105005000000438
S708,FATIMA DO SUL,MS,-22.30861111,-54.32583332,340,2018-02-27T21:00:00.000-03:00,Operante,Automatica,SEMADESC-MS,N,38,0-2000-0-84837,0-76-0-5003801000000009
B854,FAXINAL DO SOTURNO,RS,-29.58749999,-53.42749999,70,2026-03-10T21:00:00.000-03:00,Operante,Automatica,INMET,N,08,,0-76-0-4308003000000676
A138,FEIJO,AC,-8.14277777,-70.3436111,157.17,2009-09-23T21:00:00.000-03:00,Operante,Automatica,INMET,,01,0-2000-0-81924,0-76-0-1200302000000454
A413,FEIRA DE SANTANA,BA,-12.1961111,-38.96749999,229.64,2007-05-25T21:00:00.000-03:00,Pane,Automatica,INMET,N,04,0-2000-0-86658,0-76-0-2910800000000195
A951,FELIZ NATAL,MT,-12.39694444,-54.92999999,373,2025-12-11T21:00:00.000-03:00,Operante,Automatica,INMET,N,09,,0-76-0-5103700000000650
S732,FIGUEIRAO (FAZ. WATERLOO),MS,-18.74532,-53.936083,462,2025-08-15T21:00:00.000-03:00,Operante,Automatica,SEMADESC-MS,N,38,0-2000-0-84861,0-76-0-5003900000000025
A351,FLORESTA,PE,-8.59888888,-38.58416666,327.42,2008-09-14T21:00:00.000-03:00,Pane,Automatica,INMET,N,03,0-2000-0-81952,0-76-0-2605707000000429
A535,FLORESTAL,MG,-19.88527777,-44.41694443,753.5,2008-06-26T21:00:00.000-03:00,Operante,Automatica,INMET,N,05,0-2000-0-86798,0-76-0-3126000000000392
A311,FLORIANO,PI,-6.76138888,-43.00333333,126.39,2004-11-17T21:00:00.000-03:00,Pane,Automatica,INMET,N,03,0-2000-0-81868,0-76-0-2203909000000067
A806,FLORIANOPOLIS,SC,-27.6025,-48.61999999,4.87,2003-01-21T22:00:00.000-02:00,Pane,Automatica,INMET,N,08,0-2000-0-86958,0-76-0-4216602000000043
A524,FORMIGA,MG,-20.455,-45.45388888,878.14,2006-08-16T21:00:00.000-03:00,Operante,Automatica,INMET,N,05,0-2000-0-86820,0-76-0-3126109000000094
A452,FORMOSA DO RIO PRETO,BA,-11.05222222,-45.20083333,488,2016-06-01T21:00:00.000-03:00,Pane,Automatica,INMET,N,04,0-2000-0-86623,0-76-0-2911105000000517
A039,FORMOSO DO ARAGUAIA,TO,-11.88749999,-49.60833333,215.2,2008-04-26T21:00:00.000-03:00,Operante,Automatica,INMET,N,10,0-2000-0-86629,0-76-0-1708205000000351
A305,FORTALEZA,CE,-3.81583333,-38.53777777,29.55,2003-02-17T21:00:00.000-03:00,Pane,Automatica,INMET,N,03,0-2000-0-81758,0-76-0-2304400000000057
A846,FOZ DO IGUACU,PR,-25.60194444,-54.48305554,235.09,2008-02-14T21:00:00.000-03:00,Pane,Automatica,INMET,N,08,0-2000-0-86925,0-76-0-4108304000000288
A708,FRANCA,SP,-20.58444444,-47.38249999,1002.74,2002-12-11T22:00:00.000-02:00,Operante,Automatica,INMET,N,07,0-2000-0-86818,0-76-0-3516200000000031
A854,FREDERICO WESTPHALEN,RS,-27.39555555,-53.42944443,489.42,2007-12-13T21:00:00.000-03:00,Pane,Automatica,INMET,N,08,0-2000-0-86951,0-76-0-4308508000000281
A046,GAMA (PONTE ALTA),DF,-15.93527777,-48.13749999,990,2014-09-30T21:00:00.000-03:00,Operante,Automatica,INMET,N,10,0-2000-0-86717,0-76-0-5300108000000496
A322,GARANHUNS,PE,-8.91083333,-36.49333333,827.78,2007-07-07T21:00:00.000-03:00,Operante,Automatica,INMET,N,03,0-2000-0-81955,0-76-0-2606002000000222
B834,GARRUCHOS,RS,-28.19694444,-55.62972221,0,2025-10-12T21:00:00.000-03:00,Operante,Automatica,INMET,N,08,,0-76-0-4308656000000631
A930,GAUCHA DO NORTE,MT,-13.18472221,-53.2575,375.87,2008-06-03T21:00:00.000-03:00,Operante,Automatica,INMET,,09,0-2000-0-86666,0-76-0-5103858000000377
A875,GENERAL CARNEIRO,PR,-26.3986111,-51.35361111,1009.01,2008-04-29T21:00:00.000-03:00,Operante,Automatica,INMET,,08,0-2000-0-86941,0-76-0-4108502000000356
A364,GILBUES,PI,-9.87527777,-45.34583333,425.1,2009-05-15T21:00:00.000-03:00,Pane,Automatica,INMET,N,03,0-2000-0-81986,0-76-0-2204402000000447
A022,GOIANESIA,GO,-15.22027777,-48.98999999,667.01,2007-06-01T21:00:00.000-03:00,Operante,Automatica,INMET,N,10,0-2000-0-86713,0-76-0-5208608000000206
A002,GOIANIA,GO,-16.64277777,-49.22027777,727.3,2001-05-28T21:00:00.000-03:00,Operante,Automatica,INMET,N,10,0-2000-0-86734,0-76-0-5208707000000007
A014,GOIAS,GO,-15.93972221,-50.14138888,512.86,2007-07-17T21:00:00.000-03:00,Operante,Automatica,INMET,N,10,0-2000-0-86712,0-76-0-5208905000000232
A825,GOIOERE,PR,-24.18388888,-53.04888888,481,2006-10-18T21:00:00.000-03:00,Operante,Automatica,INMET,N,08,0-2000-0-86917,0-76-0-4108601000000119
A532,GOVERNADOR VALADARES,MG,-18.83027777,-41.97694443,198.24,2007-05-26T21:00:00.000-03:00,Operante,Automatica,INMET,N,05,0-2000-0-86783,0-76-0-3127701000000197
A207,GRAJAU,MA,-5.81611111,-46.16222222,232.29,2008-09-09T21:00:00.000-03:00,Pane,Automatica,INMET,N,02,0-2000-0-81823,0-76-0-2104800000000425
A426,GUANAMBI,BA,-14.20805555,-42.74972221,552.23,2008-04-23T21:00:00.000-03:00,Operante,Automatica,INMET,N,04,0-2000-0-86694,0-76-0-2911709000000347
A533,GUANHAES,MG,-18.78694444,-42.94305555,852.68,2007-06-01T21:00:00.000-03:00,Pane,Automatica,INMET,N,05,0-2000-0-86782,0-76-0-3128006000000207
A314,GUARAMIRANGA,CE,-4.22916666,-38.95888888,865.53,2007-05-25T21:00:00.000-03:00,Pane,Automatica,INMET,N,03,0-2000-0-81797,0-76-0-2305100000000194
A906,GUARANTA DO NORTE,MT,-9.9525,-54.89777777,283.58,2002-12-19T22:00:00.000-02:00,Pane,Automatica,INMET,N,09,0-2000-0-81979,0-76-0-5104104000000040
A546,GUARDA-MOR,MG,-17.56138888,-47.19916666,997.01,2007-07-10T21:00:00.000-03:00,Operante,Automatica,INMET,N,05,0-2000-0-86757,0-76-0-3128600000000225
A932,GUIRATINGA,MT,-16.34166666,-53.76611111,525.43,2008-01-23T21:00:00.000-03:00,Operante,Automatica,INMET,,09,0-2000-0-86729,0-76-0-5104203000000282
A019,GURUPI,TO,-11.74499999,-49.05166666,274,2006-12-19T21:00:00.000-03:00,Pane,Automatica,INMET,N,10,0-2000-0-86630,0-76-0-1709500000000161
B826,HERVAL,RS,-32.01277777,-53.40305555,331,2025-09-16T21:00:00.000-03:00,Operante,Automatica,INMET,N,08,,0-76-0-4307104000000624
A112,HUMAITA,AM,-7.5525,-63.07138888,53.56,2008-04-24T21:00:00.000-03:00,Operante,Automatica,INMET,,01,0-2000-0-81890,0-76-0-1301704000000349
A349,IBIMIRIM,PE,-8.50944444,-37.71166666,434.23,2008-10-13T21:00:00.000-03:00,Operante,Automatica,INMET,N,03,0-2000-0-81954,0-76-0-2606606000000436
A555,IBIRITE (ROLA MOCA),MG,-20.03138888,-44.01111111,1198.82,2008-06-05T21:00:00.000-03:00,Pane,Automatica,INMET,,05,0-2000-0-86821,0-76-0-3129806000000378
A883,IBIRUBA,RS,-28.65333333,-53.11194444,455.27,2012-12-12T21:00:00.000-03:00,Operante,Automatica,INMET,,08,0-2000-0-86974,0-76-0-4310009000000491
A737,IBITINGA,SP,-21.85555555,-48.79972221,496.75,2007-11-08T21:00:00.000-03:00,Operante,Automatica,INMET,N,07,0-2000-0-86843,0-76-0-3519600000000267
A439,IBOTIRAMA,BA,-12.19305555,-43.21333333,425.12,2008-04-27T21:00:00.000-03:00,Pane,Automatica,INMET,N,04,0-2000-0-86653,0-76-0-2913200000000355
A824,ICARAIMA,PR,-23.39027777,-53.63583333,381.29,2006-11-15T21:00:00.000-03:00,Pane,Automatica,INMET,N,08,0-2000-0-86897,0-76-0-4109906000000139
A712,IGUAPE,SP,-24.67166666,-47.54583333,2.7,2006-07-19T21:00:00.000-03:00,Operante,Automatica,INMET,N,07,0-2000-0-86923,0-76-0-3520301000000088
S709,IGUATEMI,MS,-23.64444444,-54.57027777,319,2018-02-18T21:00:00.000-03:00,Operante,Automatica,SEMADESC-MS,N,38,0-2000-0-84838,0-76-0-5004304000000005
A319,IGUATU,CE,-6.39638888,-39.26888888,221.56,2007-05-29T21:00:00.000-03:00,Operante,Automatica,INMET,N,03,0-2000-0-81873,0-76-0-2305506000000200
A410,ILHEUS,BA,-14.65888888,-39.18138888,80.21,2003-01-24T22:00:00.000-02:00,Pane,Automatica,INMET,N,04,0-2000-0-86699,0-76-0-2913606000000045
A225,IMPERATRIZ,MA,-5.55583333,-47.45972222,117.96,2008-02-29T21:00:00.000-03:00,Pane,Automatica,INMET,N,02,0-2000-0-81822,0-76-0-2105302000000299
A823,INACIO MARTINS,PR,-25.56777777,-51.07805554,1208.85,2006-10-15T21:00:00.000-03:00,Pane,Automatica,INMET,N,08,0-2000-0-86929,0-76-0-4110201000000117
A817,INDAIAL,SC,-26.91361111,-49.26805554,72.24,2006-07-01T21:00:00.000-03:00,Pane,Automatica,INMET,N,08,0-2000-0-86946,0-76-0-4207502000000080
S734,INOCENCIA (FAZ. RECANTO),MS,-19.98796,-52.139617,369,2025-08-22T21:00:00.000-03:00,Operante,Automatica,SEMADESC-MS,N,38,0-2000-0-84863,0-76-0-5004403000000027
A372,IPANGUACU,RN,-5.53499999,-36.87222221,19,2017-11-07T21:00:00.000-03:00,Operante,Automatica,INMET,N,03,0-2000-0-81837,0-76-0-2404705000000568
A713,IPERO,SP,-23.4261111,-47.58555555,609.33,2006-08-21T21:00:00.000-03:00,Operante,Automatica,INMET,N,07,0-2000-0-86907,0-76-0-3552205000000098
A445,IPIAU,BA,-14.17138888,-39.69249999,132.11,2009-06-29T21:00:00.000-03:00,Pane,Automatica,INMET,,04,0-2000-0-86698,0-76-0-2913903000000452
A028,IPORA,GO,-16.42305554,-51.14888888,610.41,2013-06-23T21:00:00.000-03:00,Operante,Automatica,INMET,N,10,0-2000-0-86731,0-76-0-5210208000000493
A424,IRECE,BA,-11.32888888,-41.86444444,768.42,2008-03-30T21:00:00.000-03:00,Operante,Automatica,INMET,N,04,0-2000-0-86635,0-76-0-2914604000000325
A451,ITABAIANA,SE,-10.67166666,-37.47138888,213,2017-04-23T21:00:00.000-03:00,Pane,Automatica,INMET,N,04,0-2000-0-86601,0-76-0-2802908000000544
A417,ITABAIANINHA,SE,-11.27249999,-37.79499999,204.8,2007-05-22T21:00:00.000-03:00,Operante,Automatica,INMET,N,04,0-2000-0-86638,0-76-0-2803005000000191
A408,ITABERABA,BA,-12.52416666,-40.29972221,250.11,2003-01-28T22:00:00.000-02:00,Operante,Automatica,INMET,N,04,0-2000-0-86656,0-76-0-2914703000000048
A121,ITACOATIARA,AM,-3.13333333,-58.48277777,41.54,2008-04-16T21:00:00.000-03:00,Operante,Automatica,INMET,,01,0-2000-0-81733,0-76-0-1301902000000340
B849,ITACURUBI,RS,-28.69916666,-55.38055554,148,2026-01-20T21:00:00.000-03:00,Pane,Automatica,INMET,N,08,,0-76-0-4310553000000655
A231,ITAITUBA,PA,-4.27694443,-55.99305555,24.46,2008-02-16T21:00:00.000-03:00,Operante,Automatica,INMET,N,02,0-2000-0-81778,0-76-0-1503606000000290
A868,ITAJAI,SC,-26.95083333,-48.76194444,9.76,2010-06-23T21:00:00.000-03:00,Operante,Automatica,INMET,,08,0-2000-0-86948,0-76-0-4208203000000461
A455,ITAMARAJU,BA,-17.00694444,-39.55805555,110,2016-05-27T21:00:00.000-03:00,Pane,Automatica,INMET,N,04,0-2000-0-86760,0-76-0-2915601000000514
A950,ITANHANGA,MT,-12.23416666,-56.60222222,350,2025-11-30T21:00:00.000-03:00,Operante,Automatica,INMET,N,09,,0-76-0-5104542000000642
A550,ITAOBIM,MG,-16.57555554,-41.48555555,271.63,2007-09-04T21:00:00.000-03:00,Pane,Automatica,INMET,N,05,0-2000-0-86742,0-76-0-3133303000000251
A015,ITAPACI,GO,-14.97972221,-49.53944444,551,2007-02-02T21:00:00.000-03:00,Pane,Automatica,INMET,N,10,0-2000-0-86689,0-76-0-5210901000000173
A446,ITAPETINGA,BA,-15.24472221,-40.22944443,271.48,2009-06-24T21:00:00.000-03:00,Pane,Automatica,INMET,,04,0-2000-0-86723,0-76-0-2916401000000450
A714,ITAPEVA,SP,-23.98194443,-48.88583333,743.33,2006-07-24T21:00:00.000-03:00,Operante,Automatica,INMET,N,07,0-2000-0-86905,0-76-0-3522406000000090
A359,ITAPIPOCA,CE,-3.48416666,-39.5886111,104.49,2008-09-04T21:00:00.000-03:00,Pane,Automatica,INMET,N,03,0-2000-0-81756,0-76-0-2306405000000421
A739,ITAPIRA,SP,-22.415,-46.80527777,634.89,2007-11-04T21:00:00.000-03:00,Operante,Automatica,INMET,N,07,0-2000-0-86869,0-76-0-3522604000000263
A851,ITAPOA,SC,-26.08138888,-48.64166666,6.18,2007-06-05T21:00:00.000-03:00,Operante,Automatica,INMET,N,08,0-2000-0-86947,0-76-0-4208450000000210
S710,ITAPORA,MS,-22.09277777,-54.79888888,360,2018-02-25T21:00:00.000-03:00,Operante,Automatica,SEMADESC-MS,N,38,0-2000-0-84839,0-76-0-5004502000000008
A373,ITAPORANGA,PB,-7.31833332,-38.14083333,292,2017-11-02T21:00:00.000-03:00,Pane,Automatica,INMET,N,03,0-2000-0-81907,0-76-0-2507002000000567
B850,ITAQUI,RS,-29.15555555,-56.55555555,71,2026-01-27T21:00:00.000-03:00,Operante,Automatica,INMET,N,08,,0-76-0-4310603000000657
A752,ITAQUIRAI,MS,-23.44944444,-54.18194443,337.82,2008-05-27T21:00:00.000-03:00,Pane,Automatica,INMET,,07,0-2000-0-86896,0-76-0-5004601000000367
A251,ITAUBAL,AP,0.56777777,-50.8236111,21,2017-08-23T21:00:00.000-03:00,Pane,Automatica,INMET,N,02,0-2000-0-81636,0-76-0-1600253000000554
A933,ITIQUIRA,MT,-17.17499999,-54.50166666,593.12,2008-08-13T21:00:00.000-03:00,Operante,Automatica,INMET,,09,0-2000-0-86748,0-76-0-5104609000000414
A407,ITIRUCU,BA,-13.52777777,-40.11972221,757.42,2003-02-08T22:00:00.000-02:00,Pane,Automatica,INMET,N,04,0-2000-0-86674,0-76-0-2916906000000053
A512,ITUIUTABA,MG,-18.95277777,-49.52499999,540.08,2006-05-11T21:00:00.000-03:00,Operante,Automatica,INMET,N,05,0-2000-0-86775,0-76-0-3134202000000076
A035,ITUMBIARA,GO,-18.40972222,-49.19194444,491.17,2007-10-31T21:00:00.000-03:00,Operante,Automatica,INMET,N,10,0-2000-0-86774,0-76-0-5211503000000261
A863,ITUPORANGA,SC,-27.41833332,-49.64694444,479.79,2008-03-03T21:00:00.000-03:00,Operante,Automatica,INMET,,08,0-2000-0-86957,0-76-0-4208500000000303
A753,ITUVERAVA,SP,-20.35972222,-47.77527777,610.58,2008-07-16T21:00:00.000-03:00,Operante,Automatica,INMET,,07,0-2000-0-86817,0-76-0-3524105000000403
A818,IVAI,PR,-25.01083333,-50.85388888,803.58,2006-07-10T21:00:00.000-03:00,Operante,Automatica,INMET,N,08,0-2000-0-86930,0-76-0-4111407000000082
A709,IVINHEMA,MS,-22.30055555,-53.82277777,377.36,2003-02-07T22:00:00.000-02:00,Operante,Automatica,INMET,N,07,0-2000-0-86860,0-76-0-5004700000000052
A440,JACOBINA,BA,-11.205,-40.465,440.78,2008-04-30T21:00:00.000-03:00,Pane,Automatica,INMET,,04,0-2000-0-86636,0-76-0-2917508000000357
A836,JAGUARAO,RS,-32.53472221,-53.37583332,31.48,2007-01-08T21:00:00.000-03:00,Operante,Automatica,INMET,N,08,0-2000-0-86996,0-76-0-4311007000000169
A358,JAGUARIBE,CE,-5.90555555,-38.62777777,149.31,2008-09-09T21:00:00.000-03:00,Pane,Automatica,INMET,N,03,0-2000-0-81833,0-76-0-2306900000000426
A339,JAGUARUANA,CE,-4.83777777,-37.69972221,12,2007-11-09T21:00:00.000-03:00,Operante,Automatica,INMET,,03,0-2000-0-81798,0-76-0-2307007000000269
A733,JALES,SP,-20.165,-50.59499999,460.44,2007-08-21T21:00:00.000-03:00,Operante,Automatica,INMET,N,07,0-2000-0-86814,0-76-0-3524808000000242
A559,JANUARIA,MG,-15.44805555,-44.36638888,468,2016-06-22T21:00:00.000-03:00,Operante,Automatica,INMET,N,05,0-2000-0-86710,0-76-0-3135209000000521
A871,JAPIRA,PR,-23.77333332,-50.18055554,692.88,2008-02-28T21:00:00.000-03:00,Operante,Automatica,INMET,,08,0-2000-0-86902,0-76-0-4109708000000297
A758,JARDIM,MS,-21.4786111,-56.13777777,252.47,2011-08-03T21:00:00.000-03:00,Operante,Automatica,INMET,,07,0-2000-0-86835,0-76-0-5005004000000474
A016,JATAI,GO,-17.9236111,-51.71749999,670.08,2007-05-22T21:00:00.000-03:00,Operante,Automatica,INMET,N,10,0-2000-0-86752,0-76-0-5211909000000190
A450,JEREMOABO,BA,-10.08083332,-38.34583333,261,2015-08-12T21:00:00.000-03:00,Pane,Automatica,INMET,N,04,0-2000-0-86605,0-76-0-2918100000000499
A841,JOACABA,SC,-27.16916666,-51.55888888,767.63,2007-09-19T21:00:00.000-03:00,Pane,Automatica,INMET,N,08,0-2000-0-86955,0-76-0-4209003000000254
A320,JOAO PESSOA,PB,-7.14083333,-34.85083333,43,2007-07-20T21:00:00.000-03:00,Pane,Automatica,INMET,N,03,0-2000-0-81918,0-76-0-2507507000000234
A553,JOAO PINHEIRO,MG,-17.78444444,-46.11944443,877.05,2007-07-06T21:00:00.000-03:00,Operante,Automatica,INMET,N,05,0-2000-0-86758,0-76-0-3136306000000221
A821,JOAQUIM TAVORA,PR,-23.50527777,-49.94638888,512.67,2006-11-22T21:00:00.000-03:00,Operante,Automatica,INMET,N,08,0-2000-0-86903,0-76-0-4112801000000144
B835,JOIA,RS,-28.65027777,-54.11277777,0,2025-10-12T21:00:00.000-03:00,Operante,Automatica,INMET,N,08,,0-76-0-4311155000000632
A735,JOSE BONIFACIO,SP,-21.08555555,-49.92027777,408.35,2007-09-02T21:00:00.000-03:00,Operante,Automatica,INMET,N,07,0-2000-0-86839,0-76-0-3525706000000249
A914,JUARA,MT,-11.28027777,-57.52666666,263.43,2006-11-01T21:00:00.000-03:00,Pane,Automatica,INMET,N,09,0-2000-0-86625,0-76-0-5105101000000134
A920,JUINA,MT,-11.37499999,-58.77472221,365.39,2006-11-23T21:00:00.000-03:00,Pane,Automatica,INMET,N,09,0-2000-0-86624,0-76-0-5105150000000145
A518,JUIZ DE FORA,MG,-21.76999999,-43.36444444,936.88,2007-05-25T21:00:00.000-03:00,Operante,Automatica,INMET,N,05,0-2000-0-86851,0-76-0-3136702000000196
A749,JUTI,MS,-22.85722222,-54.60555555,375.18,2008-06-15T21:00:00.000-03:00,Pane,Automatica,INMET,,07,0-2000-0-86859,0-76-0-5005152000000384
A111,LABREA,AM,-7.26055555,-64.7886111,61.91,2008-07-26T21:00:00.000-03:00,Pane,Automatica,INMET,,01,0-2000-0-81888,0-76-0-1302405000000412
A865,LAGES,SC,-27.80222222,-50.33555555,952.7,2014-11-05T21:00:00.000-03:00,Operante,Automatica,INMET,,08,0-2000-0-86932,0-76-0-4209300000000497
A055,LAGOA DA CONFUSAO,TO,-10.828286,-49.847882,178,2016-11-14T21:00:00.000-03:00,Operante,Automatica,INMET,N,10,0-2000-0-86602,0-76-0-1711902000000531
A844,LAGOA VERMELHA,RS,-28.22249999,-51.51277777,833.83,2007-03-01T21:00:00.000-03:00,Operante,Automatica,INMET,N,08,0-2000-0-86965,0-76-0-4311304000000175
S711,LAGUNA CARAPA,MS,-22.57527777,-55.16027777,499,2018-04-11T21:00:00.000-03:00,Operante,Automatica,SEMADESC-MS,N,38,0-2000-0-84840,0-76-0-5005251000000015
B804,LARANJEIRAS DO SUL,PR,-25.37138888,-52.40083333,889,2016-08-06T21:00:00.000-03:00,Pane,Automatica,INMET,N,08,0-2000-0-86949,0-76-0-4113304000000525
B853,LAVRAS DO SUL,RS,-30.7886111,-53.89416666,390,2026-04-29T21:00:00.000-03:00,Operante,Automatica,INMET,N,08,,0-76-0-4311502000000665
A425,LENCOIS,BA,-12.55777777,-41.38888888,438.09,2008-04-04T21:00:00.000-03:00,Pane,Automatica,INMET,N,04,0-2000-0-86654,0-76-0-2900702000000328
A614,LINHARES,ES,-19.35694444,-40.0686111,40,2006-10-26T21:00:00.000-03:00,Operante,Automatica,INMET,N,06,0-2000-0-86805,0-76-0-3203205000000128
A727,LINS,SP,-21.66611111,-49.73472221,460.65,2006-09-19T21:00:00.000-03:00,Pane,Automatica,INMET,N,07,0-2000-0-86840,0-76-0-3527108000000105
A955,LUCAS DO RIO VERDE,MT,-13.07499999,-55.91138888,393,2025-12-02T21:00:00.000-03:00,Operante,Automatica,INMET,N,09,,0-76-0-5105259000000646
A404,LUIS EDUARDO MAGALHAES,BA,-12.08499999,-45.70527777,748,2002-04-17T21:00:00.000-03:00,Operante,Automatica,INMET,N,04,0-2000-0-86651,0-76-0-2903201000000021
A012,LUZIANIA,GO,-16.26055555,-47.96694443,1000.82,2006-10-20T21:00:00.000-03:00,Operante,Automatica,INMET,N,10,0-2000-0-86736,0-76-0-5212501000000120
A866,Laguna  - Farol de Santa Marta,SC,-28.60444444,-48.81333333,34.36,2008-05-31T21:00:00.000-03:00,Pane,Automatica,INMET,N,08,0-2000-0-86972,0-76-0-4209409000000373
A608,MACAE,RJ,-22.3761111,-41.81194444,28,2006-09-21T21:00:00.000-03:00,Operante,Automatica,INMET,N,06,0-2000-0-86891,0-76-0-3302403000000106
A412,MACAJUBA,BA,-12.13166666,-40.35416666,360,2003-02-02T22:00:00.000-02:00,Pane,Automatica,INMET,N,04,0-2000-0-86655,0-76-0-2919603000000049
B851,MACAMBARA,RS,-29.15527777,-56.1786111,95,2026-04-28T21:00:00.000-03:00,Operante,Automatica,INMET,N,08,,0-76-0-4311718000000658
A249,MACAPA,AP,0.03499999,-51.08888888,16.62,2013-12-11T21:00:00.000-03:00,Operante,Automatica,INMET,,02,0-2000-0-81638,0-76-0-1600303000000495
A317,MACAU,RN,-5.15111111,-36.57305554,17.37,2007-01-05T21:00:00.000-03:00,Operante,Automatica,INMET,N,03,0-2000-0-81836,0-76-0-2407203000000167
A303,MACEIO,AL,-9.55111111,-35.77027777,84.12,2003-02-24T21:00:00.000-03:00,Operante,Automatica,INMET,N,03,0-2000-0-81998,0-76-0-2700508000000061
A567,MACHADO,MG,-21.68083332,-45.94444444,969,2017-07-20T21:00:00.000-03:00,Operante,Automatica,INMET,N,05,0-2000-0-84815,0-76-0-3139003000000552
A864,MAJOR VIEIRA,SC,-26.3936111,-50.36333333,799.58,2009-02-08T21:00:00.000-03:00,Operante,Automatica,INMET,,08,0-2000-0-86942,0-76-0-4210308000000442
A820,MAL. CANDIDO RONDON,PR,-24.53333333,-54.01916666,392.07,2006-11-17T21:00:00.000-03:00,Operante,Automatica,INMET,N,08,0-2000-0-86916,0-76-0-4114609000000140
A119,MANACAPURU,AM,-3.29472221,-60.62833332,36.57,2008-04-09T21:00:00.000-03:00,Operante,Automatica,INMET,,01,0-2000-0-81729,0-76-0-1302504000000331
A101,MANAUS,AM,-3.10333333,-60.01638888,61.25,2000-05-08T21:00:00.000-03:00,Operante,Automatica,INMET,N,01,0-2000-0-81730,0-76-0-1302603000000003
A556,MANHUACU,MG,-20.26333333,-42.18277777,819.47,2010-09-24T21:00:00.000-03:00,Operante,Automatica,INMET,,05,0-2000-0-86825,0-76-0-3139409000000467
A133,MANICORE,AM,-5.7886111,-61.28833333,40.64,2011-12-11T22:00:00.000-02:00,Operante,Automatica,INMET,,01,0-2000-0-81810,0-76-0-1302702000000479
A540,MANTENA,MG,-18.78055554,-40.98638888,254.91,2007-07-31T21:00:00.000-03:00,Operante,Automatica,INMET,N,05,0-2000-0-86784,0-76-0-3139607000000238
A240,MARABA,PA,-5.36638888,-49.05111111,116.58,2009-06-24T21:00:00.000-03:00,Pane,Automatica,INMET,,02,0-2000-0-81820,0-76-0-1504208000000449
A731,MARACAJU,MS,-21.60916666,-55.17749999,388.94,2006-12-14T21:00:00.000-03:00,Operante,Automatica,INMET,N,07,0-2000-0-86834,0-76-0-5005400000000156
A438,MARAU,BA,-13.90694444,-38.97222221,6.24,2008-06-21T21:00:00.000-03:00,Pane,Automatica,INMET,,04,0-2000-0-86677,0-76-0-2920700000000387
A946,MARCELANDIA,MT,-11.08499999,-54.51388888,291,2025-12-13T21:00:00.000-03:00,Operante,Automatica,INMET,N,09,,0-76-0-5105580000000652
A137,MARECHAL THAUMATURGO,AC,-8.95,-72.78666666,220.98,2009-10-26T21:00:00.000-03:00,Pane,Automatica,INMET,,01,0-2000-0-81922,0-76-0-1200351000000456
A531,MARIA DA FE,MG,-22.31444444,-45.37305554,1281.43,2006-11-30T21:00:00.000-03:00,Operante,Automatica,INMET,N,05,0-2000-0-86871,0-76-0-3139904000000151
A041,MARIANOPOLIS DO TO,TO,-9.57638888,-49.72333332,186.69,2012-11-23T21:00:00.000-03:00,Operante,Automatica,INMET,N,10,0-2000-0-81983,0-76-0-1712504000000488
A632,MARILANDIA,ES,-19.40722222,-40.53972221,95,2017-03-21T21:00:00.000-03:00,Operante,Automatica,INMET,N,06,0-2000-0-84810,0-76-0-3203353000000542
A763,MARILIA,SP,-22.23527777,-49.965,660,2017-05-14T21:00:00.000-03:00,Operante,Automatica,INMET,N,07,0-2000-0-84813,0-76-0-3529005000000547
A835,MARINGA,PR,-23.40527777,-51.93277777,548.51,2006-11-20T21:00:00.000-03:00,Operante,Automatica,INMET,N,08,0-2000-0-86899,0-76-0-4115200000000142
A040,MATEIROS,TO,-10.43444444,-45.92194443,791,2012-10-24T21:00:00.000-03:00,Operante,Automatica,INMET,N,10,0-2000-0-86608,0-76-0-1712702000000486
A122,MAUES,AM,-3.39888888,-57.67388888,25.49,2008-04-21T21:00:00.000-03:00,Pane,Automatica,INMET,N,01,0-2000-0-81734,0-76-0-1302900000000345
A209,MEDICILANDIA,PA,-3.51083333,-52.96333333,251.68,2008-02-16T21:00:00.000-03:00,Pane,Automatica,INMET,N,02,0-2000-0-81739,0-76-0-1504455000000289
A246,MINA DO PALITO,PA,-6.31999999,-55.78777777,259.88,2010-09-27T21:00:00.000-03:00,Operante,Automatica,INMET,,02,0-2000-0-81855,0-76-0-1500602000000468
B813,MINAS DO LEAO,RS,-30.12444443,-52.05083333,54,2025-07-31T21:00:00.000-03:00,Operante,Automatica,INMET,N,08,,0-76-0-4312252000000607
A026,MINEIROS,GO,-17.45472222,-52.60111111,862,2007-11-23T21:00:00.000-03:00,Pane,Automatica,INMET,N,10,0-2000-0-86751,0-76-0-5213103000000277
A722,MIRANDA,MS,-20.39555555,-56.43166666,132.49,2006-11-01T21:00:00.000-03:00,Operante,Automatica,INMET,N,07,0-2000-0-86807,0-76-0-5005608000000133
A961,MIRASSOL D'OESTE,MT,-15.64027777,-58.07888888,263,2026-02-04T21:00:00.000-03:00,Operante,Automatica,INMET,N,09,,0-76-0-5105622000000662
A539,MOCAMBINHO,MG,-15.08583333,-44.01611111,454,2007-11-10T21:00:00.000-03:00,Operante,Automatica,INMET,N,05,0-2000-0-86720,0-76-0-3135050000000270
A526,MONTALVANIA,MG,-14.40833333,-44.40416666,519.52,2007-06-25T21:00:00.000-03:00,Pane,Automatica,INMET,N,05,0-2000-0-86693,0-76-0-3142700000000217
A239,MONTE ALEGRE,PA,-2,-54.07638888,100.53,2012-07-05T21:00:00.000-03:00,Pane,Automatica,INMET,N,02,0-2000-0-81706,0-76-0-1504802000000482
A032,MONTE ALEGRE DE GOIAS,GO,-13.25361111,-46.89027777,552,2007-06-06T21:00:00.000-03:00,Operante,Automatica,INMET,,10,0-2000-0-86670,0-76-0-5213509000000211
A509,MONTE VERDE,MG,-22.86166666,-46.04333333,1544.89,2004-12-18T21:00:00.000-03:00,Operante,Automatica,INMET,N,05,0-2000-0-86870,0-76-0-3110509000000071
A334,MONTEIRO,PB,-7.89444444,-37.12472221,606.39,2007-08-21T21:00:00.000-03:00,Operante,Automatica,INMET,N,03,0-2000-0-81914,0-76-0-2509701000000241
B814,MONTENEGRO,RS,-29.75861111,-51.4361111,15,2025-07-31T21:00:00.000-03:00,Operante,Automatica,INMET,N,08,,0-76-0-4312401000000608
A506,MONTES CLAROS,MG,-16.68638888,-43.84388888,645.87,2002-12-18T22:00:00.000-02:00,Operante,Automatica,INMET,N,05,0-2000-0-86740,0-76-0-3143302000000038
A332,MORADA NOVA,CE,-5.0911111,-38.36472222,93,2007-08-23T21:00:00.000-03:00,Operante,Automatica,INMET,N,03,0-2000-0-81832,0-76-0-2308708000000243
A873,MORRETES,PR,-25.50888888,-48.80861111,50.31,2008-03-12T21:00:00.000-03:00,Operante,Automatica,INMET,,08,0-2000-0-86934,0-76-0-4116208000000317
A003,MORRINHOS,GO,-17.74499999,-49.10166666,751.09,2001-05-24T21:00:00.000-03:00,Pane,Automatica,INMET,N,10,0-2000-0-86755,0-76-0-5213806000000006
A318,MOSSORO,RN,-4.90416666,-37.36694443,29.44,2007-05-21T21:00:00.000-03:00,Operante,Automatica,INMET,N,03,0-2000-0-81834,0-76-0-2408003000000189
B862,MOSTARDAS - BACUPARI,RS,-30.50611111,-50.41999999,20,2026-03-08T21:00:00.000-03:00,Operante,Automatica,INMET,N,08,,0-76-0-4312500000000675
B859,MUCUM,RS,-29.15361111,-51.86527777,197,2026-02-23T21:00:00.000-03:00,Operante,Automatica,INMET,N,08,,0-76-0-4312609000000669
A517,MURIAE,MG,-21.105,-42.37583332,282.79,2006-08-29T21:00:00.000-03:00,Operante,Automatica,INMET,N,05,0-2000-0-86852,0-76-0-3148202000000102
A304,NATAL,RN,-5.83722221,-35.20805555,47.46,2003-02-23T21:00:00.000-03:00,Operante,Automatica,INMET,N,03,0-2000-0-81839,0-76-0-2408102000000060
S735,NAVIRAI (FAZ. SANTA HELENA DO PINDO),MS,-22.899909,-53.869219,303,2025-08-27T21:00:00.000-03:00,Operante,Automatica,SEMADESC-MS,N,38,0-2000-0-84864,0-76-0-5005707000000028
A717,NHUMIRIM,MS,-18.9886111,-56.62277777,102.26,2006-08-01T21:00:00.000-03:00,Operante,Automatica,INMET,N,07,0-2000-0-86768,0-76-0-5003207000000092
S724,NIOAQUE (FAZ. BURITIZINHO DA DOMINGUENA),MS,-21.067069,-55.645874,305,2025-06-20T21:00:00.000-03:00,Operante,Automatica,SEMADESC-MS,N,38,0-2000-0-84853,0-76-0-5005806000000024
A627,NITEROI,RJ,-22.86749999,-43.10194444,6,2018-07-12T21:00:00.000-03:00,Operante,Automatica,INMET,N,06,0-2000-0-84823,0-76-0-3303302000000580
B846,NONOAI,RS,-27.35861111,-52.77805554,546,2025-12-16T21:00:00.000-03:00,Operante,Automatica,INMET,N,08,,0-76-0-4312708000000654
A453,NOSSA SENHORA DA GLORIA,SE,-10.20777777,-37.43194443,271,2017-03-23T21:00:00.000-03:00,Pane,Automatica,INMET,N,04,0-2000-0-86600,0-76-0-2804508000000543
S712,NOVA ALVORADA DO SUL,MS,-21.45083333,-54.34194444,407,2018-02-22T21:00:00.000-03:00,Operante,Automatica,SEMADESC-MS,N,38,0-2000-0-84841,0-76-0-5006002000000007
S713,NOVA ANDRADINA,MS,-22.0786111,-53.46583333,372,2018-04-08T21:00:00.000-03:00,Operante,Automatica,SEMADESC-MS,N,38,0-2000-0-84842,0-76-0-5006200000000014
A953,NOVA CANAA DO NORTE,MT,-10.62444443,-55.72416666,270,2025-12-15T21:00:00.000-03:00,Operante,Automatica,INMET,N,09,,0-76-0-5106216000000653
A842,NOVA FATIMA,PR,-23.41527777,-50.57777777,664.31,2007-02-07T21:00:00.000-03:00,Pane,Automatica,INMET,N,08,0-2000-0-86901,0-76-0-4117008000000174
A624,NOVA FRIBURGO - SALINAS,RJ,-22.33472221,-42.67694443,1070,2010-09-17T21:00:00.000-03:00,Operante,Automatica,INMET,,06,0-2000-0-86889,0-76-0-3303401000000466
A928,NOVA MARINGA,MT,-13.0386111,-57.09222221,334.36,2008-04-15T21:00:00.000-03:00,Operante,Automatica,INMET,,09,0-2000-0-86663,0-76-0-5108907000000338
A563,NOVA PORTEIRINHA (JANAUBA),MG,-15.80277777,-43.29694444,532,2016-11-18T21:00:00.000-03:00,Operante,Automatica,INMET,N,05,0-2000-0-86706,0-76-0-3135100000000533
A822,NOVA TEBAS,PR,-24.43388888,-51.95388888,660,2006-12-20T21:00:00.000-03:00,Operante,Automatica,INMET,N,08,0-2000-0-86919,0-76-0-4117271000000164
A929,NOVA UBIRATA,MT,-13.03222221,-55.24194444,466.48,2008-04-12T21:00:00.000-03:00,Pane,Automatica,INMET,,09,0-2000-0-86665,0-76-0-5106240000000337
A959,NOVA UBIRATA - SEDE,MT,-13.03249999,-55.24194444,440,2026-03-04T21:00:00.000-03:00,Pane,Automatica,INMET,N,09,,
A956,NOVA XAVANTINA,MT,-14.69777777,-52.35027777,306,2025-12-02T21:00:00.000-03:00,Operante,Automatica,INMET,N,09,,0-76-0-5106257000000647
A144,NOVO ARIPUANA,AM,-8.0911111,-60.38055554,45,2019-07-17T21:00:00.000-03:00,Operante,Automatica,INMET,N,01,0-2000-0-81812,0-76-0-1303304000000594
A816,NOVO HORIZONTE,SC,-26.40638888,-52.85027777,943.57,2008-09-19T21:00:00.000-03:00,Pane,Automatica,INMET,N,08,0-2000-0-86938,0-76-0-4203600000000432
A235,NOVO REPARTIMENTO,PA,-4.24388888,-49.93944444,100.76,2008-07-22T21:00:00.000-03:00,Operante,Automatica,INMET,N,02,0-2000-0-81784,0-76-0-1505064000000410
A947,NOVO SANTO ANTONIO,MT,-12.28805555,-50.97138888,205,2025-11-27T21:00:00.000-03:00,Operante,Automatica,INMET,N,09,,0-76-0-5106315000000641
A232,OBIDOS,PA,-1.88083332,-55.51972221,89.64,2012-07-04T21:00:00.000-03:00,Pane,Automatica,INMET,N,02,0-2000-0-81675,0-76-0-1505106000000481
A354,OEIRAS,PI,-6.97416666,-42.14694444,154.03,2008-07-21T21:00:00.000-03:00,Pane,Automatica,INMET,,03,0-2000-0-81869,0-76-0-2207009000000409
A242,OIAPOQUE,AP,3.81361111,-51.8625,15.14,2008-09-10T21:00:00.000-03:00,Operante,Automatica,INMET,N,02,0-2000-0-81609,0-76-0-1600501000000428
A570,OLIVEIRA,MG,-20.715,-44.86444444,1025,2017-10-18T21:00:00.000-03:00,Operante,Automatica,INMET,N,05,0-2000-0-84819,0-76-0-3145604000000560
A366,OURICURI,PE,-7.88583333,-40.10277777,457.85,2010-08-10T21:00:00.000-03:00,Operante,Automatica,INMET,N,03,0-2000-0-81910,0-76-0-2609907000000462
A716,OURINHOS,SP,-23.00055555,-49.84333333,500,2006-08-28T21:00:00.000-03:00,Pane,Automatica,INMET,N,07,0-2000-0-86866,0-76-0-3534708000000101
A513,OURO BRANCO,MG,-20.55666666,-43.75611111,1048.2,2006-07-27T21:00:00.000-03:00,Operante,Automatica,INMET,N,05,0-2000-0-86823,0-76-0-3145901000000091
A210,PACAJA,PA,-3.8436111,-50.63805555,89.02,2008-02-26T21:00:00.000-03:00,Operante,Automatica,INMET,N,02,0-2000-0-81742,0-76-0-1505486000000292
A357,PALMARES,PE,-8.66666666,-35.56805554,164.01,2008-09-03T21:00:00.000-03:00,Operante,Automatica,INMET,N,03,0-2000-0-81957,0-76-0-2610004000000420
B836,PALMARES DO SUL,RS,-30.24916666,-50.50916666,4,2025-10-12T21:00:00.000-03:00,Operante,Automatica,INMET,N,08,,0-76-0-4313656000000633
A009,PALMAS,TO,-10.14777777,-48.31444444,267,2004-12-16T21:00:00.000-03:00,Operante,Automatica,INMET,N,10,0-2000-0-86607,0-76-0-1721000000000070
A856,PALMEIRA DAS MISSOES,RS,-27.92027777,-53.31805554,614.11,2008-02-25T21:00:00.000-03:00,Operante,Automatica,INMET,,08,0-2000-0-86953,0-76-0-4313706000000291
A327,PALMEIRA DOS INDIOS,AL,-9.42027777,-36.62027777,278.01,2007-07-10T21:00:00.000-03:00,Pane,Automatica,INMET,,03,0-2000-0-81995,0-76-0-2700805000000224
A323,PAO DE ACUCAR,AL,-9.74916666,-37.43083332,20.83,2007-07-13T21:00:00.000-03:00,Operante,Automatica,INMET,N,03,0-2000-0-81994,0-76-0-2706406000000230
A571,PARACATU,MG,-17.24444444,-46.88166666,705,2018-03-15T21:00:00.000-03:00,Operante,Automatica,INMET,N,05,0-2000-0-86747,0-76-0-3147006000000576
A212,PARAGOMINAS,PA,-2.90055555,-47.49499999,88,2007-10-17T21:00:00.000-03:00,Operante,Automatica,INMET,,02,0-2000-0-81745,0-76-0-1505502000000258
S723,PARAISO DAS AGUAS (FAZ. RANCHINHO),MS,-19.233169,-53.329431,617,2025-06-15T21:00:00.000-03:00,Operante,Automatica,SEMADESC-MS,N,38,0-2000-0-84852,0-76-0-5006275000000023
A010,PARANA,TO,-12.615,-47.87194443,284.96,2005-03-03T21:00:00.000-03:00,Operante,Automatica,INMET,N,10,0-2000-0-86650,0-76-0-1716208000000073
A710,PARANAIBA,MS,-19.69555555,-51.18166666,408.06,2006-11-09T21:00:00.000-03:00,Operante,Automatica,INMET,N,07,0-2000-0-86792,0-76-0-5006309000000137
A850,PARANAPOEMA,PR,-22.65833333,-52.13444444,308.7,2008-03-03T21:00:00.000-03:00,Pane,Automatica,INMET,N,08,0-2000-0-86862,0-76-0-4118303000000302
A047,PARANOA (COOPA-DF),DF,-16.01222222,-47.5575,1043,2017-02-06T21:00:00.000-03:00,Operante,Automatica,INMET,N,10,0-2000-0-86733,0-76-0-5300108000000537
A619,PARATY,RJ,-23.2236111,-44.72694443,3,2006-11-18T21:00:00.000-03:00,Operante,Automatica,INMET,N,06,0-2000-0-86913,0-76-0-3303807000000141
A027,PARAUNA,GO,-16.9625,-50.42555554,678.74,2008-03-28T21:00:00.000-03:00,Operante,Automatica,INMET,N,10,0-2000-0-86732,0-76-0-5216403000000324
A123,PARINTINS,AM,-2.63916666,-56.75611111,18.72,2008-04-10T21:00:00.000-03:00,Operante,Automatica,INMET,N,01,0-2000-0-81703,0-76-0-1303403000000332
A308,PARNAIBA,PI,-3.08666666,-41.78305554,52.11,2003-02-05T22:00:00.000-02:00,Pane,Automatica,INMET,N,03,0-2000-0-81752,0-76-0-2207702000000051
B810,PARQUE ELDORADO,RS,-30.09666666,-51.67388888,50,2025-02-17T21:00:00.000-03:00,Operante,Automatica,INMET,N,08,,0-76-0-4306767000000603
A102,PARQUE ESTADUAL CHANDLESS,AC,-9.35833333,-69.92638888,184.51,2008-08-04T21:00:00.000-03:00,Pane,Automatica,INMET,N,01,0-2000-0-81963,0-76-0-1200435000000413
A529,PASSA QUATRO,MG,-22.39583333,-44.96194444,1017.1,2007-05-29T21:00:00.000-03:00,Pane,Automatica,INMET,N,05,0-2000-0-86873,0-76-0-3147600000000201
A839,PASSO FUNDO,RS,-28.22666666,-52.40361111,680.67,2006-11-26T21:00:00.000-03:00,Operante,Automatica,INMET,N,08,0-2000-0-86963,0-76-0-4314100000000147
A516,PASSOS,MG,-20.74527777,-46.63388888,781.7,2006-07-15T21:00:00.000-03:00,Pane,Automatica,INMET,N,05,0-2000-0-86819,0-76-0-3147907000000086
A321,PATOS,PB,-7.07972221,-37.27277777,263.66,2007-07-20T21:00:00.000-03:00,Operante,Automatica,INMET,N,03,0-2000-0-81913,0-76-0-2510808000000235
A562,PATOS DE MINAS,MG,-18.52055554,-46.44055555,950,2017-05-11T21:00:00.000-03:00,Pane,Automatica,INMET,N,05,0-2000-0-84811,0-76-0-3148004000000545
A523,PATROCINIO,MG,-18.99666666,-46.98583333,978.11,2006-08-21T21:00:00.000-03:00,Operante,Automatica,INMET,N,05,0-2000-0-86778,0-76-0-3148103000000097
A637,PATY DO ALFERES - AVELAR,RJ,-22.34722221,-43.41777777,508,2022-11-09T21:00:00.000-03:00,Operante,Automatica,INMET,N,06,0-2000-0-86680,0-76-0-3303856000000600
A330,PAULISTANA,PI,-8.13222221,-41.14305555,376,2007-08-30T21:00:00.000-03:00,Operante,Automatica,INMET,N,03,0-2000-0-81950,0-76-0-2207801000000246
A020,PEDRO AFONSO,TO,-8.9686111,-48.17722221,189.71,2007-01-22T21:00:00.000-03:00,Pane,Automatica,INMET,N,10,0-2000-0-81941,0-76-0-1716505000000170
S714,PEDRO GOMES,MS,-18.07277777,-54.54888888,251,2018-02-01T21:00:00.000-03:00,Operante,Automatica,SEMADESC-MS,N,38,0-2000-0-84843,0-76-0-5006408000000003
A018,PEIXE,TO,-12.01527777,-48.54444444,250.87,2006-11-30T21:00:00.000-03:00,Operante,Automatica,INMET,N,10,0-2000-0-86649,0-76-0-1716604000000150
A307,PETROLINA,PE,-9.38833333,-40.52333332,372.72,2003-02-20T21:00:00.000-03:00,Pane,Automatica,INMET,N,03,0-2000-0-81991,0-76-0-2611101000000059
A430,PIATA,BA,-13.15555555,-41.77416666,1283.95,2008-05-02T21:00:00.000-03:00,Pane,Automatica,INMET,N,04,0-2000-0-86673,0-76-0-2924306000000358
A610,PICO DO COUTO,RJ,-22.46472222,-43.29138888,1777,2006-10-21T21:00:00.000-03:00,Operante,Automatica,INMET,N,06,0-2000-0-86876,0-76-0-3303906000000121
A343,PICOS,PI,-7.0711111,-41.40416666,232.91,2008-12-11T21:00:00.000-03:00,Operante,Automatica,INMET,N,03,0-2000-0-81908,0-76-0-2208007000000440
B823,PINHEIRO MACHADO,RS,-31.57472221,-53.38833333,419,2025-09-16T21:00:00.000-03:00,Operante,Automatica,INMET,N,08,,0-76-0-4314506000000623
A726,PIRACICABA,SP,-22.70305555,-47.62333332,566.46,2006-09-25T21:00:00.000-03:00,Operante,Automatica,INMET,N,07,0-2000-0-86868,0-76-0-3538709000000110
A371,PIRANHAS,AL,-9.62222221,-37.76722221,187,2017-09-19T21:00:00.000-03:00,Operante,Automatica,INMET,N,03,0-2000-0-81980,0-76-0-2707107000000559
A545,PIRAPORA,MG,-17.258064,-44.835556,505.32,2007-07-03T21:00:00.000-03:00,Operante,Automatica,INMET,N,05,0-2000-0-86759,0-76-0-3151206000000220
A033,PIRES DO RIO,GO,-17.30416666,-48.28416666,757.27,2007-10-11T21:00:00.000-03:00,Operante,Automatica,INMET,N,10,0-2000-0-86756,0-76-0-5217401000000255
A335,PIRIPIRI,PI,-4.2761111,-41.79444444,157.89,2007-08-30T21:00:00.000-03:00,Pane,Automatica,INMET,N,03,0-2000-0-81794,0-76-0-2208403000000247
A051,PIUM,TO,-10.47694443,-49.62944443,161,2016-04-05T21:00:00.000-03:00,Pane,Automatica,INMET,N,10,0-2000-0-86603,0-76-0-1717503000000510
A211,PLACAS,PA,-3.86416666,-54.21638888,100.45,2008-02-13T21:00:00.000-03:00,Pane,Automatica,INMET,N,02,0-2000-0-81737,0-76-0-1505650000000287
A855,PLANALTO,PR,-25.72194443,-53.74805555,399.1,2007-11-06T21:00:00.000-03:00,Operante,Automatica,INMET,,08,0-2000-0-86926,0-76-0-4119806000000265
A419,POCO VERDE,SE,-10.73805555,-38.10833333,367.01,2008-04-02T21:00:00.000-03:00,Pane,Automatica,INMET,,04,0-2000-0-86614,0-76-0-2805505000000327
A966,POCONE,MT,-17.33666666,-56.76999999,100,2026-04-23T21:00:00.000-03:00,Operante,Automatica,INMET,N,09,,
A560,POMPEU,MG,-19.23249999,-44.96416666,705,2015-08-20T21:00:00.000-03:00,Operante,Automatica,INMET,N,05,0-2000-0-86788,0-76-0-3152006000000504
A703,PONTA PORA,MS,-22.5525,-55.71638888,668,2001-09-06T21:00:00.000-03:00,Operante,Automatica,INMET,N,07,0-2000-0-86857,0-76-0-5006606000000012
A937,PONTES E LACERDA,MT,-15.32527777,-59.2336111,272.53,2008-01-29T21:00:00.000-03:00,Operante,Automatica,INMET,,09,0-2000-0-86702,0-76-0-5106752000000285
A005,PORANGATU,GO,-13.30944444,-49.11749999,365,2001-06-03T21:00:00.000-03:00,Operante,Automatica,INMET,N,10,0-2000-0-86669,0-76-0-5218003000000581
B825,PORTO ALEGRE - BELEM NOVO,RS,-30.1861111,-51.17833332,3.3,2025-04-30T21:00:00.000-03:00,Operante,Automatica,INMET,N,08,,0-76-0-4314902000000606
A801,PORTO ALEGRE - JARDIM BOTANICO,RS,-30.05361111,-51.17472221,41.18,2000-09-21T21:00:00.000-03:00,Operante,Automatica,INMET,N,08,0-2000-0-86988,0-76-0-4314902000000005
A245,PORTO DE MOZ,PA,-1.82194443,-52.11166666,19,2022-04-06T21:00:00.000-03:00,Operante,Automatica,INMET,N,02,0-2000-0-81671,0-76-0-1505908000000599
A960,PORTO ESPERIDIAO,MT,-15.86083333,-58.47222221,159,2026-02-06T21:00:00.000-03:00,Operante,Automatica,INMET,N,09,,
A935,PORTO ESTRELA,MT,-15.32472221,-57.22583332,147.75,2008-05-29T21:00:00.000-03:00,Operante,Automatica,INMET,,09,0-2000-0-86704,0-76-0-5106851000000371
A244,PORTO GRANDE,AP,0.69416666,-51.40388888,84.8,2008-09-16T21:00:00.000-03:00,Operante,Automatica,INMET,,02,0-2000-0-81637,0-76-0-1600535000000431
A723,PORTO MURTINHO,MS,-21.70583333,-57.88666666,78.56,2006-10-23T21:00:00.000-03:00,Operante,Automatica,INMET,N,07,0-2000-0-86833,0-76-0-5006903000000122
S719,PORTO MURTINHO (FAZ. SAO LUIS),MS,-20.97305554,-57.40111111,178.1,2025-05-26T21:00:00.000-03:00,Operante,Automatica,SEMADESC-MS,N,38,0-2000-0-84848,0-76-0-5006903000000019
A427,PORTO SEGURO,BA,-16.38888888,-39.18249999,86.36,2008-07-09T21:00:00.000-03:00,Pane,Automatica,INMET,N,04,0-2000-0-86745,0-76-0-2925303000000396
A925,PORTO VELHO,RO,-8.7936111,-63.84583333,86.7,2007-07-10T21:00:00.000-03:00,Pane,Automatica,INMET,N,09,0-2000-0-81932,0-76-0-1100205000000227
A136,PORTO WALTER,AC,-8.26722221,-72.74777777,205.35,2009-10-28T21:00:00.000-03:00,Pane,Automatica,INMET,,01,0-2000-0-81921,0-76-0-1200393000000457
B837,PORTO XAVIER,RS,-27.90277777,-55.16722221,0,2025-10-12T21:00:00.000-03:00,Operante,Automatica,INMET,N,08,,0-76-0-4315107000000634
A017,POSSE,GO,-14.08916666,-46.36638888,830,2007-04-17T21:00:00.000-03:00,Operante,Automatica,INMET,N,10,0-2000-0-86692,0-76-0-5218300000000181
A747,PRADOPOLIS,SP,-21.33833333,-48.11388888,544,2008-04-21T21:00:00.000-03:00,Operante,Automatica,INMET,,07,0-2000-0-86842,0-76-0-3518859000000346
A218,PREGUICAS,MA,-2.59222221,-42.7075,4.62,2008-11-21T21:00:00.000-03:00,Pane,Automatica,INMET,N,02,0-2000-0-81717,0-76-0-2101707000000437
A126,PRESIDENTE FIGUEIREDO,AM,-2.05666666,-60.02583332,60.99,2008-04-18T21:00:00.000-03:00,Pane,Automatica,INMET,,01,0-2000-0-81699,0-76-0-1303536000000343
A622,PRESIDENTE KENNEDY,ES,-21.10083333,-41.03944444,69.12,2008-06-17T21:00:00.000-03:00,Operante,Automatica,INMET,,06,0-2000-0-86853,0-76-0-3204302000000385
A707,PRESIDENTE PRUDENTE,SP,-22.11999999,-51.40861111,431.92,2003-02-03T22:00:00.000-02:00,Operante,Automatica,INMET,N,07,0-2000-0-86863,0-76-0-3541406000000050
A923,PRIMAVERA DO LESTE,MT,-15.57999999,-54.3811111,680,2017-10-25T21:00:00.000-03:00,Operante,Automatica,INMET,N,09,0-2000-0-86700,0-76-0-5107040000000566
A831,QUARAI,RS,-30.3686111,-56.43722221,103,2007-10-16T21:00:00.000-03:00,Operante,Automatica,INMET,N,08,0-2000-0-86982,0-76-0-4315305000000257
A436,QUEIMADAS,BA,-10.98472221,-39.61694443,310.11,2008-05-22T21:00:00.000-03:00,Pane,Automatica,INMET,N,04,0-2000-0-86612,0-76-0-2925808000000366
A916,QUERENCIA,MT,-12.60305555,-52.1625,355,2007-07-17T21:00:00.000-03:00,Operante,Automatica,INMET,N,09,0-2000-0-86647,0-76-0-5107065000000233
A369,QUIXADA,CE,-4.97888888,-39.05722222,193,2018-03-19T21:00:00.000-03:00,Pane,Automatica,INMET,N,03,0-2000-0-81799,0-76-0-2311306000000577
A325,QUIXERAMOBIM,CE,-5.17444443,-39.28944444,221.04,2007-07-08T21:00:00.000-03:00,Pane,Automatica,INMET,N,03,0-2000-0-81831,0-76-0-2311405000000223
A718,RANCHARIA,SP,-22.37277777,-50.97472221,398.75,2006-08-31T21:00:00.000-03:00,Operante,Automatica,INMET,N,07,0-2000-0-86864,0-76-0-3542206000000103
A870,RANCHO QUEIMADO,SC,-27.6786111,-49.04194444,881,2016-05-30T21:00:00.000-03:00,Operante,Automatica,INMET,N,08,0-2000-0-86959,0-76-0-4214300000000515
A301,RECIFE,PE,-8.01888888,-34.94416666,10,2004-12-21T21:00:00.000-03:00,Operante,Automatica,INMET,N,03,0-2000-0-81958,0-76-0-2611606000000072
A254,REDENCAO,PA,-8.04333333,-50.00694444,199,2019-07-10T21:00:00.000-03:00,Operante,Automatica,INMET,N,02,0-2000-0-81937,0-76-0-1506139000000593
A766,REGISTRO,SP,-24.53305554,-47.86416666,35,2017-02-08T21:00:00.000-03:00,Operante,Automatica,INMET,N,07,0-2000-0-86915,0-76-0-3542602000000538
B860,RELVADO,RS,-29.10444444,-52.05277777,301,2026-02-23T21:00:00.000-03:00,Operante,Automatica,INMET,N,08,,0-76-0-4315453000000670
A423,REMANSO,BA,-9.62555554,-42.07722221,397.4,2008-03-25T21:00:00.000-03:00,Pane,Automatica,INMET,N,04,0-2000-0-81990,0-76-0-2926004000000321
A609,RESENDE,RJ,-22.45138888,-44.44499999,438.83,2006-09-28T21:00:00.000-03:00,Operante,Automatica,INMET,N,06,0-2000-0-86874,0-76-0-3304201000000114
S715,RIBAS DO RIO PARDO,MS,-20.46666666,-53.76305555,442,2018-01-17T21:00:00.000-03:00,Operante,Automatica,SEMADESC-MS,N,38,0-2000-0-84844,0-76-0-5007109000000001
S728,RIBAS DO RIO PARDO (FAZ. CAMPO RICO),MS,-21.189845,-53.555382,449,2025-08-02T21:00:00.000-03:00,Operante,Automatica,SEMADESC-MS,N,38,0-2000-0-84857,0-76-0-5007109000000021
A458,RIBEIRA DO AMPARO,BA,-11.05861111,-38.44416666,182,2018-09-19T21:00:00.000-03:00,Operante,Automatica,INMET,N,04,0-2000-0-86640,0-76-0-2926509000000582
A104,RIO BRANCO,AC,-9.95916666,-67.86888888,163,2008-07-10T21:00:00.000-03:00,Operante,Automatica,INMET,N,01,0-2000-0-81965,0-76-0-1200401000000397
A743,RIO BRILHANTE,MS,-21.77499999,-54.52805554,324.31,2008-06-25T21:00:00.000-03:00,Operante,Automatica,INMET,,07,0-2000-0-86836,0-76-0-5007208000000391
A626,RIO CLARO,RJ,-22.653579,-44.040916,516,2016-06-02T21:00:00.000-03:00,Operante,Automatica,INMET,N,06,0-2000-0-84803,0-76-0-3304409000000518
A652,RIO DE JANEIRO - FORTE DE COPACABANA,RJ,-22.98833333,-43.19055555,25.59,2007-05-17T21:00:00.000-03:00,Pane,Automatica,INMET,,06,0-2000-0-86887,0-76-0-3304557000000187
A636,RIO DE JANEIRO - JACAREPAGUA,RJ,-22.93999999,-43.40277777,20,2017-08-09T21:00:00.000-03:00,Operante,Automatica,INMET,N,06,0-2000-0-84816,0-76-0-3304557000000553
A621,RIO DE JANEIRO - VILA MILITAR,RJ,-22.86138888,-43.41138888,30.43,2007-04-12T21:00:00.000-03:00,Operante,Automatica,INMET,N,06,0-2000-0-86879,0-76-0-3304557000000179
A602,RIO DE JANEIRO-MARAMBAIA,RJ,-23.05027777,-43.59555555,12,2002-11-07T22:00:00.000-02:00,Operante,Automatica,INMET,N,06,0-2000-0-86914,0-76-0-3304557000000024
A861,RIO DO CAMPO,SC,-26.93749999,-50.14555555,591.67,2008-03-09T21:00:00.000-03:00,Operante,Automatica,INMET,N,08,0-2000-0-86944,0-76-0-4214508000000312
A802,RIO GRANDE,RS,-32.07888888,-52.16777777,4.92,2001-11-15T22:00:00.000-02:00,Operante,Automatica,INMET,N,08,0-2000-0-86995,0-76-0-4315602000000014
A862,RIO NEGRINHO,SC,-26.2486111,-49.57416666,856,2008-03-21T21:00:00.000-03:00,Operante,Automatica,INMET,N,08,0-2000-0-86945,0-76-0-4215000000000320
A813,RIO PARDO,RS,-29.87222221,-52.38194443,106.99,2006-09-29T21:00:00.000-03:00,Operante,Automatica,INMET,N,08,0-2000-0-86978,0-76-0-4315701000000115
A551,RIO PARDO DE MINAS,MG,-15.72305554,-42.43583333,850.06,2007-11-16T21:00:00.000-03:00,Operante,Automatica,INMET,N,05,0-2000-0-86721,0-76-0-3155603000000275
A050,RIO SONO,TO,-9.793363,-47.132732,291,2016-08-02T21:00:00.000-03:00,Operante,Automatica,INMET,N,10,0-2000-0-81981,0-76-0-1718758000000523
A125,RIO URUBU,AM,-2.6336111,-59.60055555,112.84,2008-06-25T21:00:00.000-03:00,Pane,Automatica,INMET,N,01,0-2000-0-81700,0-76-0-1303536000000390
A025,RIO VERDE,GO,-17.78527777,-50.965,780.11,2007-05-16T21:00:00.000-03:00,Operante,Automatica,INMET,N,10,0-2000-0-86753,0-76-0-5218805000000184
B819,ROLANTE,RS,-29.65583333,-50.61805554,69,2025-08-17T21:00:00.000-03:00,Operante,Automatica,INMET,N,08,,0-76-0-4316006000000616
A214,RONDON DO PARA,PA,-4.82749999,-48.1736111,203,2008-04-16T21:00:00.000-03:00,Pane,Automatica,INMET,N,02,0-2000-0-81786,0-76-0-1506187000000342
A907,RONDONOPOLIS,MT,-16.4625,-54.58027777,289.88,2003-11-16T21:00:00.000-03:00,Operante,Automatica,INMET,N,09,0-2000-0-86728,0-76-0-5107602000000065
A944,ROSARIO OESTE,MT,-14.82888888,-56.44194444,195,2019-05-29T21:00:00.000-03:00,Operante,Automatica,INMET,N,09,0-2000-0-86683,0-76-0-5107701000000591
B855,Rosario do Sul,RS,-30.25972222,-54.90222222,115,2026-03-30T21:00:00.000-03:00,Operante,Automatica,INMET,N,08,,
A134,S. G. DA CACHOEIRA,AM,-0.12527777,-67.06111111,79.67,2011-08-30T21:00:00.000-03:00,Pane,Automatica,INMET,N,01,0-2000-0-81643,0-76-0-1303809000000476
A903,S.J. DO RIO CLARO,MT,-13.45388888,-56.67722221,339.59,2003-02-24T21:00:00.000-03:00,Operante,Automatica,INMET,N,09,0-2000-0-86664,0-76-0-5107305000000062
A525,SACRAMENTO,MG,-19.87527777,-47.43416666,913.12,2006-08-18T21:00:00.000-03:00,Operante,Automatica,INMET,N,05,0-2000-0-86795,0-76-0-3156908000000095
A370,SALGUEIRO,PE,-8.05805555,-39.0961111,447,2017-09-14T21:00:00.000-03:00,Operante,Automatica,INMET,N,03,0-2000-0-81949,0-76-0-2612208000000558
A552,SALINAS,MG,-16.16027777,-42.31027777,487.14,2007-09-13T21:00:00.000-03:00,Operante,Automatica,INMET,N,05,0-2000-0-86741,0-76-0-3157005000000253
A215,SALINOPOLIS,PA,-0.61888888,-47.35666666,23.18,2008-06-13T21:00:00.000-03:00,Operante,Automatica,INMET,N,02,0-2000-0-81660,0-76-0-1506203000000383
A936,SALTO DO CEU,MT,-15.12472221,-58.12722221,300.83,2008-01-23T21:00:00.000-03:00,Operante,Automatica,INMET,,09,0-2000-0-86703,0-76-0-5107750000000283
B838,SALTO DO JACUI,RS,-29.09638888,-53.2125,322,2025-10-12T21:00:00.000-03:00,Operante,Automatica,INMET,N,08,,0-76-0-4316451000000635
A401,SALVADOR,BA,-13.00555555,-38.50583333,47.56,2000-05-12T21:00:00.000-03:00,Operante,Automatica,INMET,N,04,0-2000-0-86678,0-76-0-2927408000000004
A456,SALVADOR (RADIO FAROL),BA,-12.80833333,-38.49583333,31,2018-03-09T21:00:00.000-03:00,Operante,Automatica,INMET,N,04,0-2000-0-86660,0-76-0-2927408000000572
A367,SANTA CRUZ,RN,-6.22805554,-36.02666666,227.49,2010-08-16T21:00:00.000-03:00,Pane,Automatica,INMET,N,03,0-2000-0-81876,0-76-0-2411205000000464
A048,SANTA FE DO ARAGUAIA,TO,-7.12416666,-48.78138888,171,2016-07-29T21:00:00.000-03:00,Operante,Automatica,INMET,N,10,0-2000-0-81898,0-76-0-1718865000000522
A803,SANTA MARIA,RS,-29.72499999,-53.72055554,105,2001-11-25T22:00:00.000-02:00,Operante,Automatica,INMET,N,08,0-2000-0-86977,0-76-0-4316907000000016
A256,SANTA MARIA DAS BARREIRAS,PA,-8.72972221,-49.85638888,165,2020-12-17T21:00:00.000-03:00,Operante,Automatica,INMET,N,02,0-2000-0-81871,0-76-0-1506583000000598
B816,SANTA MARIA DO HERVAL,RS,-29.47916666,-51.01333333,650,2025-08-20T21:00:00.000-03:00,Operante,Automatica,INMET,N,08,,0-76-0-4316956000000619
A630,SANTA MARIA MADALENA,RJ,-21.95055555,-42.01027777,586,2018-10-15T21:00:00.000-03:00,Operante,Automatica,INMET,N,06,0-2000-0-84825,0-76-0-3304607000000584
A415,SANTA RITA DE CASSIA,BA,-11.00333333,-44.53638888,450,2007-05-27T21:00:00.000-03:00,Pane,Automatica,INMET,N,04,0-2000-0-86633,0-76-0-2928406000000198
S716,SANTA RITA DO PARDO,MS,-21.30583333,-52.82027777,383,2018-02-18T21:00:00.000-03:00,Operante,Automatica,SEMADESC-MS,N,38,0-2000-0-84845,0-76-0-5007554000000006
A948,SANTA RITA DO TRIVELATO,MT,-13.81805554,-55.26777777,510,2025-12-08T21:00:00.000-03:00,Operante,Automatica,INMET,N,09,,0-76-0-5107768000000649
A810,SANTA ROSA,RS,-27.84805555,-54.45222222,329,2006-11-14T21:00:00.000-03:00,Pane,Automatica,INMET,N,08,0-2000-0-86950,0-76-0-4317202000000138
A052,SANTA ROSA DO TOCANTINS,TO,-11.42888888,-48.18499999,306,2015-08-13T21:00:00.000-03:00,Operante,Automatica,INMET,N,10,0-2000-0-86631,0-76-0-1718907000000500
A613,SANTA TERESA,ES,-19.98833333,-40.57944443,975.92,2007-08-08T21:00:00.000-03:00,Operante,Automatica,INMET,N,06,0-2000-0-86804,0-76-0-3204609000000240
B830,SANTA VITORIA DO PALMAR (CENTRO),RS,-33.53166666,-53.35027777,29,2025-09-17T21:00:00.000-03:00,Operante,Automatica,INMET,N,08,,0-76-0-4317301000000628
B829,SANTA VITORIA DO PALMAR (RESERVA DO TAIM),RS,-32.83583333,-52.6436111,2,2025-09-16T21:00:00.000-03:00,Operante,Automatica,INMET,N,08,,0-76-0-4317301000000626
A899,SANTA VITORIA DO PALMAR - BARRA DO CHUI,RS,-33.74222221,-53.37222221,7.41,2008-03-07T21:00:00.000-03:00,Operante,Automatica,INMET,N,08,0-2000-0-86998,0-76-0-4305439000000309
B821,SANTANA DA BOA VISTA,RS,-30.85861111,-53.15555555,138,2025-09-16T21:00:00.000-03:00,Operante,Automatica,INMET,N,08,,0-76-0-4317004000000621
A233,SANTANA DO ARAGUAIA,PA,-9.34055555,-50.35027777,154,2008-05-29T21:00:00.000-03:00,Pane,Automatica,INMET,N,02,0-2000-0-81982,0-76-0-1506708000000369
A804,SANTANA DO LIVRAMENTO,RS,-30.75055555,-55.40138888,196,2001-11-21T22:00:00.000-02:00,Operante,Automatica,INMET,N,08,0-2000-0-86983,0-76-0-4317103000000015
A250,SANTAREM,PA,-2.5025,-54.72027777,137,2015-09-01T21:00:00.000-03:00,Operante,Automatica,INMET,,02,0-2000-0-81707,0-76-0-1506807000000506
A833,SANTIAGO,RS,-29.19166666,-54.88555555,390.03,2009-02-03T21:00:00.000-03:00,Operante,Automatica,INMET,N,08,0-2000-0-86976,0-76-0-4317400000000441
B844,SANTO ANGELO,RS,-28.27805554,-54.27388888,270,2026-02-24T21:00:00.000-03:00,Operante,Automatica,INMET,N,08,,0-76-0-4317509000000671
B839,SANTO ANTONIO DA PATRULHA,RS,-29.81611111,-50.53333333,47,2025-10-12T21:00:00.000-03:00,Operante,Automatica,INMET,N,08,,0-76-0-4317608000000636
A931,SANTO ANTONIO DO LESTE,MT,-14.92499999,-53.88444444,662,2008-05-29T21:00:00.000-03:00,Operante,Automatica,INMET,,09,0-2000-0-86685,0-76-0-1381098000000370
A969,SANTO ANTONIO DO LEVERGER,MT,-15.85472222,-56.07083332,190,2026-03-18T21:00:00.000-03:00,Operante,Automatica,INMET,N,09,,
A805,SANTO AUGUSTO,RS,-27.85444444,-53.7911111,489.67,2001-12-04T22:00:00.000-02:00,Operante,Automatica,INMET,N,08,0-2000-0-86952,0-76-0-4317806000000017
A830,SAO BORJA,RS,-28.65,-56.01638888,79,2007-07-20T21:00:00.000-03:00,Operante,Automatica,INMET,N,08,0-2000-0-86960,0-76-0-4318002000000236
A711,SAO CARLOS,SP,-21.98027777,-47.88388888,859.29,2006-09-03T21:00:00.000-03:00,Operante,Automatica,INMET,N,07,0-2000-0-86845,0-76-0-3548906000000104
A216,SAO FELIX DO XINGU,PA,-6.63972221,-51.95694444,211,2016-11-14T21:00:00.000-03:00,Pane,Automatica,INMET,N,02,0-2000-0-81858,0-76-0-1507300000000532
B820,SAO FRANCISCO DE PAULA,RS,-29.44222221,-50.56027777,886,2025-08-17T21:00:00.000-03:00,Operante,Automatica,INMET,N,08,,0-76-0-4318200000000617
A832,SAO GABRIEL,RS,-30.34138888,-54.31083333,114.89,2007-07-10T21:00:00.000-03:00,Operante,Automatica,INMET,N,08,0-2000-0-86984,0-76-0-4318309000000226
A732,SAO GABRIEL DO OESTE,MS,-19.42027777,-54.55305555,646,2006-12-17T21:00:00.000-03:00,Operante,Automatica,INMET,N,07,0-2000-0-86789,0-76-0-5007695000000159
A333,SAO GONCALO,PB,-6.83583333,-38.31166666,237.04,2007-11-05T21:00:00.000-03:00,Operante,Automatica,INMET,N,03,0-2000-0-81774,0-76-0-2516201000000264
A514,SAO JOAO DEL REI,MG,-21.10638888,-44.25083333,929.88,2006-06-08T21:00:00.000-03:00,Operante,Automatica,INMET,N,05,0-2000-0-86849,0-76-0-3162500000000078
A331,SAO JOAO DO PIAUI,PI,-8.36444444,-42.2525,231,2007-08-25T21:00:00.000-03:00,Operante,Automatica,INMET,N,03,0-2000-0-81848,0-76-0-2210003000000244
A815,SAO JOAQUIM,SC,-28.27555554,-49.93472221,1400.06,2008-04-11T21:00:00.000-03:00,Pane,Automatica,INMET,N,08,0-2000-0-86969,0-76-0-4216503000000336
B861,SAO JOSE DO OURO,RS,-27.77249999,-51.58666666,803,2026-02-25T21:00:00.000-03:00,Operante,Automatica,INMET,N,08,,0-76-0-4318606000000672
A942,SAO JOSE DO XINGU,MT,-10.48416666,-52.37249999,300,2019-02-18T21:00:00.000-03:00,Pane,Automatica,INMET,N,09,0-2000-0-86621,0-76-0-5107354000000589
A829,SAO JOSE DOS AUSENTES,RS,-28.7486111,-50.05777777,1228.59,2006-10-25T21:00:00.000-03:00,Operante,Automatica,INMET,N,08,0-2000-0-86967,0-76-0-4318622000000127
B831,SAO LOURENCO DO SUL,RS,-31.34055555,-52.01083333,3,2025-09-16T21:00:00.000-03:00,Operante,Automatica,INMET,N,08,,0-76-0-4318804000000627
A203,SAO LUIS,MA,-2.52666666,-44.21361111,54.8,2003-01-28T22:00:00.000-02:00,Operante,Automatica,INMET,N,02,0-2000-0-81715,0-76-0-2111300000000047
A356,SAO LUIS DO QUITUNDE,AL,-9.28749999,-35.56583333,13.69,2008-09-07T21:00:00.000-03:00,Pane,Automatica,INMET,N,03,0-2000-0-81997,0-76-0-2707404000000424
A740,SAO LUIZ DO PARAITINGA,SP,-23.22833332,-45.41694443,874,2007-10-31T21:00:00.000-03:00,Operante,Automatica,INMET,N,07,0-2000-0-86912,0-76-0-3535606000000262
A852,SAO LUIZ GONZAGA,RS,-28.41722221,-54.9625,245.5,2007-07-24T21:00:00.000-03:00,Pane,Automatica,INMET,N,08,0-2000-0-86961,0-76-0-4318903000000237
A616,SAO MATEUS,ES,-18.6761111,-39.86416666,28.66,2006-10-24T21:00:00.000-03:00,Operante,Automatica,INMET,N,06,0-2000-0-86786,0-76-0-3204906000000124
A874,SAO MATEUS DO SUL,PR,-25.83555555,-50.36888888,780.21,2011-04-16T21:00:00.000-03:00,Pane,Automatica,INMET,,08,0-2000-0-86931,0-76-0-4125605000000472
A715,SAO MIGUEL ARCANJO,SP,-23.89083333,-47.99916666,710,2006-08-14T21:00:00.000-03:00,Operante,Automatica,INMET,N,07,0-2000-0-86906,0-76-0-3550209000000093
A031,SAO MIGUEL DO ARAGUAIA,GO,-12.82055554,-50.33583333,210,2017-06-28T21:00:00.000-03:00,Operante,Automatica,INMET,N,10,0-2000-0-86646,0-76-0-5220207000000550
A857,SAO MIGUEL DO OESTE,SC,-26.78638888,-53.51416666,647,2008-03-11T21:00:00.000-03:00,Pane,Automatica,INMET,N,08,0-2000-0-86937,0-76-0-4217204000000316
A771,SAO PAULO - INTERLAGOS,SP,-23.72444443,-46.67749999,771,2018-03-13T21:00:00.000-03:00,Operante,Automatica,INMET,N,07,0-2000-0-86909,0-76-0-3550308000000573
A701,SAO PAULO - MIRANTE,SP,-23.4962888,-46.6200666,785.64,2006-07-24T21:00:00.000-03:00,Operante,Automatica,INMET,N,07,0-2000-0-86910,0-76-0-3550308000000089
A345,SAO RAIMUNDO NONATO,PI,-9.03305554,-42.70111111,385,2008-02-26T21:00:00.000-03:00,Pane,Automatica,INMET,,03,0-2000-0-81989,0-76-0-2210607000000294
A547,SAO ROMAO,MG,-16.36277777,-45.12388888,490.29,2007-06-29T21:00:00.000-03:00,Pane,Automatica,INMET,N,05,0-2000-0-86739,0-76-0-3164209000000218
A561,SAO SEBASTIAO DO PARAISO,MG,-20.91,-47.11416666,845,2015-08-16T21:00:00.000-03:00,Pane,Automatica,INMET,N,05,0-2000-0-86811,0-76-0-3164704000000501
A011,SAO SIMAO,GO,-18.96916666,-50.63333333,492.45,2006-07-14T21:00:00.000-03:00,Operante,Automatica,INMET,N,10,0-2000-0-86773,0-76-0-5220405000000084
A770,SAO SIMAO,SP,-21.46111111,-47.57944443,620,2019-07-02T21:00:00.000-03:00,Operante,Automatica,INMET,N,07,0-2000-0-84828,0-76-0-3550902000000592
A889,SAO VICENTE DO SUL,RS,-29.70222222,-54.69444444,134,2016-04-05T21:00:00.000-03:00,Pane,Automatica,INMET,N,08,0-2000-0-84802,0-76-0-4319802000000511
A911,SAPEZAL,MT,-13.30388888,-58.76333333,105,2017-10-19T21:00:00.000-03:00,Operante,Automatica,INMET,N,09,0-2000-0-86667,0-76-0-5107875000000563
B809,SAPUCAIA DO SUL,RS,-29.81388888,-51.15666666,23,2025-04-30T21:00:00.000-03:00,Operante,Automatica,INMET,N,08,,0-76-0-4320008000000604
A667,SAQUAREMA - SAMPAIO CORREIA,RJ,-22.8711111,-42.60888888,26,2015-09-01T21:00:00.000-03:00,Operante,Automatica,INMET,N,06,0-2000-0-86885,0-76-0-3305505000000507
A428,SENHOR DO BONFIM,BA,-10.44305555,-40.14833333,532.09,2008-03-26T21:00:00.000-03:00,Operante,Automatica,INMET,N,04,0-2000-0-86611,0-76-0-2930105000000322
A894,SERAFINA CORREA,RS,-28.70472222,-51.87083332,485.29,2016-03-31T21:00:00.000-03:00,Operante,Automatica,INMET,N,08,0-2000-0-84801,0-76-0-4320404000000509
A601,SEROPEDICA-ECOLOGIA AGRICOLA,RJ,-22.75777777,-43.68472221,35,2000-05-23T21:00:00.000-03:00,Operante,Automatica,INMET,N,06,0-2000-0-86878,0-76-0-3305554000000002
A522,SERRA DOS AIMORES,MG,-17.79888888,-40.25,211.97,2006-08-20T21:00:00.000-03:00,Operante,Automatica,INMET,N,05,0-2000-0-86763,0-76-0-3166709000000096
A230,SERRA DOS CARAJAS,PA,-6.07749999,-50.14222221,707,2008-09-02T21:00:00.000-03:00,Pane,Automatica,INMET,N,02,0-2000-0-81860,0-76-0-1505536000000418
A943,SERRA NOVA DOURADA,MT,-11.98777777,-51.4261111,441,2019-03-28T21:00:00.000-03:00,Pane,Automatica,INMET,N,09,0-2000-0-86641,0-76-0-5100359000000590
A350,SERRA TALHADA,PE,-7.95416666,-38.29499999,499.02,2008-07-08T21:00:00.000-03:00,Pane,Automatica,INMET,,03,0-2000-0-81912,0-76-0-2613909000000395
A441,SERRINHA,BA,-11.66472222,-39.02305554,337.79,2008-05-08T21:00:00.000-03:00,Pane,Automatica,INMET,,04,0-2000-0-86637,0-76-0-2930501000000361
B811,SERTAO SANTANA,RS,-30.49416666,-51.66333333,116,2025-08-13T21:00:00.000-03:00,Operante,Automatica,INMET,N,08,,0-76-0-4320552000000612
A569,SETE LAGOAS,MG,-19.45527777,-44.17333332,719,2016-06-09T21:00:00.000-03:00,Operante,Automatica,INMET,N,05,0-2000-0-86790,0-76-0-3167202000000520
A751,SETE QUEDAS,MS,-23.96694443,-55.02416666,398.4,2008-06-02T21:00:00.000-03:00,Operante,Automatica,INMET,,07,0-2000-0-86895,0-76-0-5007703000000376
A754,SIDROLANDIA,MS,-20.98166666,-54.97194443,471.43,2008-09-28T21:00:00.000-03:00,Operante,Automatica,INMET,,07,0-2000-0-86809,0-76-0-5007901000000434
A659,SILVA JARDIM,RJ,-22.64583333,-42.41555555,19,2015-08-27T21:00:00.000-03:00,Operante,Automatica,INMET,N,06,0-2000-0-86893,0-76-0-3305604000000505
A037,SILVANIA,GO,-16.67972221,-48.61805554,952,2010-10-07T21:00:00.000-03:00,Pane,Automatica,INMET,,10,0-2000-0-86735,0-76-0-5220603000000469
A917,SINOP,MT,-11.98222221,-55.56611111,366.57,2006-10-28T21:00:00.000-03:00,Pane,Automatica,INMET,N,09,0-2000-0-86626,0-76-0-5107909000000129
B840,SOBRADINHO,RS,-29.39833333,-53.01361111,379,2025-10-30T21:00:00.000-03:00,Operante,Automatica,INMET,N,08,,0-76-0-4320701000000638
A306,SOBRAL,CE,-3.74805555,-40.34583333,92.07,2003-02-11T22:00:00.000-02:00,Pane,Automatica,INMET,N,03,0-2000-0-81754,0-76-0-2312908000000054
A837,SOLEDADE,RS,-28.85916666,-52.54249999,660.44,2008-02-29T21:00:00.000-03:00,Operante,Automatica,INMET,N,08,0-2000-0-86964,0-76-0-4320800000000301
A761,SONORA,MS,-17.63527777,-54.76055555,495.25,2012-11-29T21:00:00.000-03:00,Operante,Automatica,INMET,,07,0-2000-0-86769,0-76-0-5007935000000489
A904,SORRISO,MT,-12.555,-55.72277777,379.31,2002-12-15T22:00:00.000-02:00,Operante,Automatica,INMET,N,09,0-2000-0-86645,0-76-0-5107925000000035
A227,SOURE,PA,-0.72777777,-48.51583333,12.54,2008-04-26T21:00:00.000-03:00,Pane,Automatica,INMET,N,02,0-2000-0-81658,0-76-0-1507904000000352
A328,SURUBIM,PE,-7.84249999,-35.79027777,421.44,2008-03-08T21:00:00.000-03:00,Operante,Automatica,INMET,N,03,0-2000-0-81917,0-76-0-2614501000000310
A952,TABAPORA,MT,-11.05055555,-56.83583333,337,2025-12-03T21:00:00.000-03:00,Operante,Automatica,INMET,N,09,,0-76-0-5107941000000648
A902,TANGARA DA SERRA,MT,-14.65,-57.43166666,440.01,2002-12-10T22:00:00.000-02:00,Operante,Automatica,INMET,N,09,0-2000-0-86682,0-76-0-5107958000000030
B815,TAQUARI,RS,-29.79166666,-51.82749999,53,2025-08-13T21:00:00.000-03:00,Operante,Automatica,INMET,N,08,,0-76-0-4321303000000613
A324,TAUA,CE,-6.01749999,-40.28138888,410.87,2007-07-11T21:00:00.000-03:00,Pane,Automatica,INMET,N,03,0-2000-0-81872,0-76-0-2313302000000228
A728,TAUBATE,SP,-23.04166666,-45.52083332,582.26,2006-12-19T21:00:00.000-03:00,Operante,Automatica,INMET,N,07,0-2000-0-86911,0-76-0-3554102000000162
A878,TAVARES - FAROL DE MOSTARDAS,RS,-31.24833333,-50.90638888,3.82,2008-03-10T21:00:00.000-03:00,Pane,Automatica,INMET,N,08,0-2000-0-86994,0-76-0-4312500000000315
A527,TEOFILO OTONI,MG,-17.89277777,-41.51555555,467.17,2006-08-24T21:00:00.000-03:00,Operante,Automatica,INMET,N,05,0-2000-0-86762,0-76-0-3168606000000099
A312,TERESINA,PI,-5.03472221,-42.80138888,75.23,2004-11-23T21:00:00.000-03:00,Operante,Automatica,INMET,N,03,0-2000-0-81827,0-76-0-2211001000000069
A618,TERESOPOLIS-PARQUE NACIONAL,RJ,-22.4486111,-42.98694444,981,2006-10-31T21:00:00.000-03:00,Operante,Automatica,INMET,N,06,0-2000-0-86888,0-76-0-3305802000000131
A882,TEUTONIA,RS,-29.44916666,-51.82333332,81,2012-10-03T21:00:00.000-03:00,Operante,Automatica,INMET,,08,0-2000-0-86987,0-76-0-4321451000000484
A368,TIANGUA,CE,-3.73222221,-41.01194444,756,2018-03-14T21:00:00.000-03:00,Pane,Automatica,INMET,N,03,0-2000-0-81753,0-76-0-2313401000000574
A511,TIMOTEO,MG,-19.57388888,-42.62249999,493.42,2006-02-21T21:00:00.000-03:00,Operante,Automatica,INMET,N,05,0-2000-0-86801,0-76-0-3168705000000075
A213,TOME ACU,PA,-2.59249999,-48.36055555,42.95,2007-10-13T21:00:00.000-03:00,Operante,Automatica,INMET,N,02,0-2000-0-81711,0-76-0-1508001000000256
B841,TORRES-AEROPORTO,RS,-29.41361111,-49.80361111,0,2025-10-12T21:00:00.000-03:00,Operante,Automatica,INMET,N,08,,0-76-0-4321501000000637
A834,TRAMANDAI,RS,-30.01027777,-50.13583333,4.56,2008-03-08T21:00:00.000-03:00,Operante,Automatica,INMET,N,08,0-2000-0-86990,0-76-0-4321600000000311
A704,TRES LAGOAS,MS,-20.79499999,-51.71333333,328.94,2001-09-02T21:00:00.000-03:00,Operante,Automatica,INMET,N,07,0-2000-0-86813,0-76-0-5008305000000011
A528,TRES MARIAS,MG,-18.20083333,-45.45972222,931.01,2006-08-24T21:00:00.000-03:00,Operante,Automatica,INMET,N,05,0-2000-0-86779,0-76-0-3169356000000100
A625,TRES RIOS,RJ,-22.09833333,-43.20833333,295,2016-06-07T21:00:00.000-03:00,Operante,Automatica,INMET,N,06,0-2000-0-84804,0-76-0-3306008000000519
A234,TUCUMA,PA,-6.74333333,-51.14194444,320.93,2008-07-17T21:00:00.000-03:00,Operante,Automatica,INMET,,02,0-2000-0-81859,0-76-0-1508084000000404
A229,TUCURUI,PA,-3.82277777,-49.67499999,137.94,2008-02-29T21:00:00.000-03:00,Operante,Automatica,INMET,N,02,0-2000-0-81743,0-76-0-1508100000000300
A768,TUPA,SP,-21.92722221,-50.49027777,498,2017-05-11T21:00:00.000-03:00,Operante,Automatica,INMET,N,07,0-2000-0-84812,0-76-0-3555000000000546
A886,TUPANCIRETA,RS,-29.08944444,-53.82666666,462,2016-08-10T21:00:00.000-03:00,Operante,Automatica,INMET,N,08,0-2000-0-84805,0-76-0-4322202000000526
A219,TURIACU,MA,-1.66111111,-45.37249999,35.86,2008-06-09T21:00:00.000-03:00,Operante,Automatica,INMET,N,02,0-2000-0-81687,0-76-0-2112407000000380
A568,UBERABA,MG,-19.71,-47.96194444,778,2017-05-18T21:00:00.000-03:00,Operante,Automatica,INMET,N,05,0-2000-0-84814,0-76-0-3170107000000549
A507,UBERLANDIA,MG,-18.91694443,-48.25555555,874.77,2002-12-17T22:00:00.000-02:00,Operante,Automatica,INMET,N,05,0-2000-0-86776,0-76-0-3170206000000036
A437,UNA,BA,-15.28027777,-39.09138888,74.08,2008-06-24T21:00:00.000-03:00,Pane,Automatica,INMET,,04,0-2000-0-86724,0-76-0-2932507000000389
A542,UNAI,MG,-16.55416666,-46.88194443,640.85,2007-06-15T21:00:00.000-03:00,Pane,Automatica,INMET,N,05,0-2000-0-86738,0-76-0-3170404000000212
A124,URUCARA,AM,-2.53472221,-57.75805555,18.49,2008-04-16T21:00:00.000-03:00,Pane,Automatica,INMET,,01,0-2000-0-81702,0-76-0-1304302000000341
A346,URUCUI,PI,-7.44138888,-44.34499999,398.83,2008-03-05T21:00:00.000-03:00,Operante,Automatica,INMET,N,03,0-2000-0-81905,0-76-0-2211209000000305
A809,URUGUAIANA,RS,-29.83999999,-57.08194443,74.29,2006-09-27T21:00:00.000-03:00,Operante,Automatica,INMET,N,08,0-2000-0-86973,0-76-0-4322400000000112
A814,URUSSANGA,SC,-28.53249999,-49.31527777,40.56,2008-05-28T21:00:00.000-03:00,Pane,Automatica,INMET,N,08,0-2000-0-86970,0-76-0-4219002000000368
A880,VACARIA,RS,-28.51361111,-50.88277777,969.89,2008-04-25T21:00:00.000-03:00,Operante,Automatica,INMET,,08,0-2000-0-86966,0-76-0-4322509000000350
A611,VALENCA,RJ,-22.35805555,-43.69555555,370,2006-09-26T21:00:00.000-03:00,Operante,Automatica,INMET,N,06,0-2000-0-86875,0-76-0-3306107000000111
A444,VALENCA,BA,-13.3436111,-39.12666666,93.12,2009-06-28T21:00:00.000-03:00,Pane,Automatica,INMET,,04,0-2000-0-86676,0-76-0-2932903000000451
A363,VALENCA DO PIAUI,PI,-6.4236111,-41.74888888,372,2009-04-17T21:00:00.000-03:00,Operante,Automatica,INMET,N,03,0-2000-0-81870,0-76-0-2211308000000444
A734,VALPARAISO,SP,-21.31916666,-50.93027777,381.9,2007-08-29T21:00:00.000-03:00,Operante,Automatica,INMET,N,07,0-2000-0-86838,0-76-0-3556305000000245
A515,VARGINHA,MG,-21.56638888,-45.40416666,949.78,2006-07-12T21:00:00.000-03:00,Operante,Automatica,INMET,N,05,0-2000-0-86848,0-76-0-3170701000000083
A633,VENDA NOVA DO IMIGRANTE,ES,-20.38555555,-41.18999999,722,2017-02-09T21:00:00.000-03:00,Operante,Automatica,INMET,N,06,0-2000-0-84809,0-76-0-3205069000000539
A872,VENTANIA,PR,-24.28027777,-50.21027777,1093.41,2011-04-14T21:00:00.000-03:00,Operante,Automatica,INMET,,08,0-2000-0-86920,0-76-0-4128534000000471
B824,VIAMAO,RS,-30.11527777,-50.92916666,65,2026-03-16T21:00:00.000-03:00,Operante,Automatica,INMET,N,08,,0-76-0-4323002000000677
A510,VICOSA,MG,-20.7625,-42.86388888,697.64,2005-09-14T21:00:00.000-03:00,Operante,Automatica,INMET,N,05,0-2000-0-86824,0-76-0-3171303000000074
